,county,state,lat,long,TotalPop,total_votes20,votes20_Donald_Trump,votes20_Joe_Biden,percentage20_Donald_Trump,percentage20_Joe_Biden,cases,deaths,Men,Women,Hispanic,White,Black,Native,Asian,Pacific,Income,IncomePerCap,Poverty,Professional,Service,Office,Construction,Production,Drive,Carpool,Transit,Walk,OtherTransp,WorkAtHome,MeanCommute,Employed,PrivateWork,PublicWork,SelfEmployed,FamilyWork,Unemployment
0,Abbeville,SC,34.22333378,-82.46170658,24788.0,12433.0,8215.0,4101.0,0.6609999999999999,0.33,805.0,17.0,12044.0,12744.0,1.3,68.9,27.6,0.1,0.3,0.0,35254.0,19234.0,22.7,27.2,20.7,20.8,10.6,20.7,78.3,11.1,0.5,1.8,1.8,6.5,25.8,9505.0,78.8,13.3,7.8,0.1,9.4
1,Acadia,LA,30.295064899999996,-92.41419698,62607.0,28425.0,22596.0,5443.0,0.795,0.191,3182.0,102.0,30433.0,32174.0,2.4,77.5,17.6,0.1,0.1,0.0,40492.0,21591.0,21.5,27.6,16.9,25.7,15.0,14.8,83.2,10.3,0.2,1.6,2.2,2.5,27.6,24982.0,80.0,12.1,7.6,0.3,8.9
2,Accomack,VA,37.76707161,-75.63234615,32840.0,16938.0,9172.0,7578.0,0.542,0.447,1227.0,19.0,16079.0,16761.0,8.8,60.3,28.3,0.3,0.7,0.0,42260.0,24266.0,19.8,31.1,17.7,18.8,15.1,17.3,80.0,10.6,0.5,2.6,1.8,4.5,22.0,13837.0,74.6,18.1,7.1,0.2,5.4
3,Ada,ID,43.4526575,-116.24155159999998,435117.0,259389.0,130699.0,120539.0,0.504,0.465,17451.0,181.0,217999.0,217118.0,7.9,85.2,1.2,0.4,2.6,0.1,60151.0,31642.0,11.8,43.0,16.6,25.0,6.9,8.4,80.7,7.7,0.5,1.5,2.8,6.9,20.4,214984.0,78.3,15.0,6.6,0.1,4.3
4,Adair,IA,41.33075609,-94.47105874,7192.0,4183.0,2917.0,1197.0,0.6970000000000001,0.28600000000000003,222.0,1.0,3552.0,3640.0,1.7,96.6,0.3,0.0,0.4,0.0,49477.0,28861.0,9.5,28.2,16.9,20.0,17.3,17.6,77.9,12.4,0.3,2.8,0.4,6.2,22.3,3680.0,73.8,15.3,10.4,0.5,3.0
5,Adair,KY,37.10459774,-85.28129668,19304.0,8766.0,7275.0,1391.0,0.83,0.159,517.0,22.0,9632.0,9672.0,1.8,93.4,3.6,0.1,0.1,0.0,36575.0,18408.0,21.5,28.5,15.9,19.7,12.2,23.8,84.5,9.0,0.0,2.6,0.5,3.4,22.2,7988.0,74.1,15.8,9.9,0.1,6.2
6,Adair,MO,40.19058551,-92.60078167,25437.0,10337.0,6391.0,3705.0,0.618,0.358,578.0,0.0,12013.0,13424.0,2.3,90.5,2.4,0.2,2.3,0.1,38750.0,21778.0,26.2,36.8,18.2,24.1,9.4,11.5,77.3,12.1,0.1,4.0,2.6,4.0,17.1,11274.0,73.6,20.9,5.3,0.2,5.5
7,Adair,OK,35.88494195,-94.65859267,22136.0,7108.0,5585.0,1387.0,0.7859999999999999,0.195,855.0,11.0,10987.0,11149.0,6.4,40.8,0.3,41.7,0.6,0.2,33366.0,16576.0,30.8,23.9,17.6,19.4,14.0,25.2,84.4,8.5,0.1,2.8,1.0,3.2,23.1,8130.0,71.6,20.4,7.5,0.5,5.5
8,Adams,CO,39.87432092,-104.3362578,487850.0,234599.0,94874.0,132951.0,0.40399999999999997,0.5670000000000001,15538.0,263.0,245840.0,242010.0,39.3,51.1,3.0,0.5,3.8,0.1,64087.0,27487.0,12.2,29.8,18.9,24.1,13.7,13.5,77.7,11.2,3.8,1.2,1.1,5.0,29.2,246450.0,83.6,11.2,5.1,0.1,5.1
9,Adams,IA,41.02903567,-94.69932645,3785.0,2158.0,1528.0,590.0,0.708,0.273,87.0,1.0,1870.0,1915.0,1.2,96.8,0.4,0.1,0.6,0.0,49745.0,27022.0,11.2,37.4,14.3,17.0,13.1,18.3,80.7,9.6,0.2,3.3,0.8,5.3,19.6,1796.0,72.0,12.1,15.5,0.3,4.2
10,Adams,ID,44.89333571,-116.4545247,3946.0,2586.0,1941.0,591.0,0.7509999999999999,0.22899999999999998,65.0,2.0,2021.0,1925.0,3.3,92.7,0.3,1.2,0.0,0.2,42727.0,24315.0,13.8,33.1,19.4,21.2,13.9,12.5,69.0,13.1,0.8,4.4,1.8,10.9,24.1,1539.0,65.4,22.0,12.5,0.0,8.7
11,Adams,IL,39.98815591,-91.18786813,66787.0,33434.0,24131.0,8569.0,0.722,0.256,2223.0,25.0,32698.0,34089.0,1.5,92.0,3.9,0.2,0.8,0.1,48454.0,27256.0,13.1,31.8,17.4,26.1,8.9,15.8,82.6,8.6,0.4,2.3,1.5,4.5,17.0,32243.0,83.1,10.6,6.1,0.1,5.5
12,Adams,IN,40.7457653,-84.93671406,35018.0,14238.0,10685.0,3236.0,0.75,0.22699999999999998,704.0,8.0,17361.0,17657.0,4.4,93.7,0.9,0.0,0.4,0.0,48290.0,21534.0,18.9,24.2,15.9,19.6,13.9,26.3,74.3,16.7,0.0,2.6,1.9,4.5,22.8,14954.0,83.1,8.2,8.1,0.6,5.2
13,Adams,MS,31.47669768,-91.35326037,31583.0,12268.0,5222.0,6914.0,0.426,0.564,1122.0,45.0,15680.0,15903.0,8.4,36.9,52.8,0.2,0.6,0.0,30359.0,17721.0,34.2,30.5,20.6,23.6,13.0,12.3,87.2,6.5,0.7,0.6,1.2,3.7,18.9,10190.0,75.2,18.2,6.4,0.1,10.9
14,Adams,ND,46.09686891,-102.5285397,2368.0,1269.0,981.0,258.0,0.773,0.203,91.0,0.0,1168.0,1200.0,0.5,93.0,1.6,1.1,2.6,0.0,54700.0,35933.0,9.2,44.6,10.7,15.0,17.5,12.2,73.9,9.4,0.6,6.0,2.9,7.3,17.3,1275.0,73.7,10.6,15.2,0.5,1.6
15,Adams,NE,40.52449420000001,-98.50117804,31564.0,14602.0,10085.0,4213.0,0.691,0.289,922.0,15.0,15981.0,15583.0,9.4,86.9,0.6,0.1,1.3,0.0,51721.0,28085.0,12.4,33.4,19.4,20.4,10.1,16.7,83.0,9.3,0.7,1.8,1.3,3.9,15.3,15890.0,78.0,15.1,6.7,0.1,4.2
16,Adams,OH,38.84541072,-83.4718964,27926.0,11905.0,9660.0,2130.0,0.8109999999999999,0.179,270.0,6.0,13960.0,13966.0,1.0,96.6,0.4,0.6,0.2,0.0,36320.0,20248.0,23.8,28.3,18.9,16.7,13.6,22.5,80.8,11.5,0.5,1.3,1.2,4.8,36.5,10124.0,79.1,13.0,7.7,0.2,7.5
17,Adams,PA,39.87140411,-77.21610347,101589.0,56627.0,37563.0,18250.0,0.6629999999999999,0.322,1184.0,31.0,50055.0,51534.0,6.8,89.5,1.4,0.0,0.7,0.0,62661.0,29685.0,8.8,30.1,16.2,22.1,11.0,20.6,82.3,9.1,0.3,3.7,0.9,3.8,27.6,50561.0,83.4,10.7,5.6,0.2,4.9
18,Adams,WA,46.98299757,-118.56017340000001,19261.0,5109.0,3449.0,1562.0,0.675,0.306,935.0,11.0,9750.0,9511.0,62.3,35.2,0.3,0.4,1.0,0.0,48131.0,18415.0,23.1,22.8,13.9,14.1,29.2,19.9,71.3,18.6,0.2,2.2,1.9,5.7,17.8,7757.0,81.2,14.6,3.8,0.3,5.9
19,Adams,WI,43.96974651,-89.76782777,20111.0,11818.0,7362.0,4329.0,0.623,0.366,587.0,5.0,10770.0,9341.0,3.8,90.7,2.7,0.6,0.5,0.0,44003.0,24874.0,13.0,23.6,22.7,21.8,12.5,19.4,78.5,12.2,0.1,1.5,1.7,6.0,28.3,7530.0,80.7,11.9,7.3,0.2,8.1
20,Addison,VT,44.03217337,-73.14130877,36825.0,870.0,379.0,445.0,0.436,0.511,124.0,2.0,18214.0,18611.0,2.2,93.0,0.9,0.3,1.9,0.0,61875.0,31051.0,7.8,40.8,16.4,18.2,13.1,11.5,72.5,8.6,0.7,7.6,1.2,9.4,23.8,19872.0,77.9,10.3,11.5,0.3,4.4
21,Aiken,SC,33.54338026,-81.63645384,165707.0,85185.0,51589.0,32275.0,0.606,0.379,5140.0,87.0,80260.0,85447.0,5.5,66.7,24.5,0.2,1.0,0.0,47713.0,26222.0,16.7,34.0,16.9,22.9,10.7,15.5,84.6,10.4,0.2,1.0,0.9,2.9,24.9,70753.0,78.1,16.4,5.0,0.4,9.0
22,Aitkin,MN,46.60962049,-93.41168259999999,15841.0,10010.0,6258.0,3607.0,0.625,0.36,232.0,3.0,8079.0,7762.0,1.3,94.1,0.5,2.2,0.4,0.0,45860.0,26883.0,12.1,30.7,19.9,23.1,13.2,13.0,79.4,9.1,0.5,4.1,1.5,5.4,26.0,6274.0,75.8,15.7,8.4,0.1,6.2
23,Alachua,FL,29.67866525,-82.35928158,259865.0,142784.0,50891.0,89527.0,0.35600000000000004,0.627,10706.0,78.0,125712.0,134153.0,9.3,62.0,19.8,0.3,5.9,0.1,45478.0,26431.0,23.3,46.1,19.2,23.3,5.3,6.2,74.7,8.8,4.1,3.3,4.6,4.5,21.2,120466.0,70.2,25.5,4.2,0.1,6.6
24,Alamance,NC,36.0434701,-79.39976137,157844.0,84710.0,45490.0,38186.0,0.537,0.451,5409.0,88.0,75078.0,82766.0,12.3,65.0,18.9,0.3,1.5,0.0,44281.0,25157.0,17.6,33.0,17.4,23.0,10.3,16.2,85.1,9.3,0.2,1.3,1.1,2.9,23.6,73906.0,81.0,13.2,5.6,0.2,6.0
25,Alameda,CA,37.64629437,-121.8929271,1629615.0,750128.0,131985.0,602851.0,0.17600000000000002,0.804,23994.0,464.0,799649.0,829966.0,22.5,32.2,10.7,0.3,28.7,0.8,85743.0,41363.0,11.3,48.0,16.0,20.4,6.4,9.2,62.0,10.1,14.6,3.7,3.6,6.0,32.5,826310.0,79.3,13.2,7.3,0.1,6.0
26,Alamosa,CO,37.57250606,-105.7885451,16345.0,7519.0,3676.0,3624.0,0.489,0.48200000000000004,360.0,9.0,8085.0,8260.0,45.8,48.6,1.6,1.3,1.0,0.2,36315.0,19217.0,27.8,30.6,22.6,22.3,13.1,11.4,75.8,15.7,0.0,4.2,1.4,2.9,14.6,6593.0,73.1,18.2,6.3,2.3,9.9
27,Albany,NY,42.60060306,-73.97723916,308580.0,121529.0,45570.0,73189.0,0.375,0.602,3750.0,140.0,149287.0,159293.0,5.7,73.0,11.7,0.1,6.4,0.0,62293.0,35278.0,12.4,44.7,17.3,25.1,5.5,7.5,77.0,7.5,5.9,4.6,1.6,3.5,20.4,158961.0,71.3,24.5,4.2,0.1,5.3
28,Albany,WY,41.65498705,-105.72354150000001,37944.0,18617.0,8579.0,9092.0,0.461,0.488,1562.0,4.0,19883.0,18061.0,9.3,82.9,1.3,0.7,2.9,0.0,45816.0,26034.0,23.0,42.1,20.8,19.2,10.1,7.8,70.1,9.7,2.1,8.8,4.7,4.7,12.7,21115.0,61.4,32.8,5.7,0.1,4.8
29,Albemarle,VA,38.02080697,-78.55481085,105105.0,64284.0,20804.0,42466.0,0.324,0.6609999999999999,1612.0,24.0,50283.0,54822.0,5.7,77.2,9.5,0.2,5.0,0.0,72265.0,39273.0,9.8,54.0,15.5,18.7,6.2,5.6,76.9,8.6,1.8,3.4,1.8,7.6,21.9,50689.0,68.0,24.5,7.2,0.3,3.2
30,Alcona,MI,44.6846864,-83.59507875,10413.0,7063.0,4848.0,2142.0,0.6859999999999999,0.303,55.0,3.0,5247.0,5166.0,1.4,96.0,0.3,0.5,0.4,0.0,39424.0,24463.0,14.9,23.5,20.9,22.9,13.2,19.6,80.8,9.6,0.2,1.8,2.3,5.3,24.0,3357.0,78.3,14.0,7.5,0.2,9.3
31,Alcorn,MS,34.88084463,-88.57996173,37242.0,15639.0,12689.0,2741.0,0.8109999999999999,0.175,1130.0,12.0,18345.0,18897.0,3.0,83.2,11.7,0.0,0.3,0.0,38919.0,20527.0,19.6,29.2,14.9,22.8,10.6,22.5,85.9,10.6,0.3,1.0,0.5,1.7,22.4,14884.0,81.1,13.9,5.0,0.1,8.6
32,Alexander,IL,37.18049267,-89.32910838,6776.0,5631.0,3056.0,2522.0,0.5429999999999999,0.44799999999999995,154.0,2.0,3258.0,3518.0,1.0,61.8,34.6,0.6,0.2,0.0,31014.0,18564.0,33.4,26.8,27.8,25.9,4.9,14.6,87.7,5.8,0.8,1.7,1.4,2.6,27.3,2164.0,75.0,20.6,4.4,0.0,8.2
33,Alexander,NC,35.922379600000006,-81.17751948,37159.0,20120.0,15806.0,4113.0,0.7859999999999999,0.204,975.0,10.0,18797.0,18362.0,4.6,87.0,5.9,0.2,1.2,0.1,44523.0,22655.0,14.7,26.8,12.6,20.6,9.4,30.7,84.9,8.9,0.0,0.8,2.6,2.8,25.6,16393.0,83.2,10.5,6.2,0.2,6.7
35,Alfalfa,OK,36.73090616,-98.32408495,5877.0,2262.0,1978.0,232.0,0.8740000000000001,0.10300000000000001,132.0,0.0,3502.0,2375.0,5.0,76.2,2.4,1.9,0.0,0.0,57432.0,28007.0,11.2,31.6,15.8,18.9,20.0,13.8,77.2,11.9,0.0,4.9,2.5,3.5,18.8,2238.0,64.7,21.2,13.8,0.3,4.5
36,Alger,MI,46.41292944,-86.60260122,9254.0,5135.0,3014.0,2053.0,0.5870000000000001,0.4,121.0,1.0,5088.0,4166.0,1.4,84.2,7.2,3.3,0.1,0.0,42647.0,21771.0,13.0,27.9,23.2,23.1,8.1,17.7,72.9,11.1,2.0,4.3,1.8,8.0,21.3,3160.0,77.1,17.6,5.3,0.0,6.9
37,Allamakee,IA,43.28383218,-91.37860922,13940.0,7459.0,4733.0,2575.0,0.635,0.345,431.0,9.0,7098.0,6842.0,6.1,91.2,0.9,0.1,0.3,0.0,47895.0,27377.0,11.4,29.8,15.3,17.5,17.5,19.9,74.1,11.1,0.2,5.0,2.1,7.5,24.3,6881.0,77.8,10.3,10.8,1.1,3.3
38,Allegan,MI,42.59147037,-85.89102866,114145.0,67182.0,41381.0,24447.0,0.616,0.364,1503.0,7.0,56997.0,57148.0,7.2,88.7,1.3,0.5,0.6,0.0,58487.0,27172.0,10.8,30.3,14.7,20.1,12.4,22.5,86.0,7.6,0.3,1.4,0.7,4.1,23.9,54028.0,86.3,7.7,5.9,0.2,3.6
39,Allegany,MD,39.62357628,-78.69280486,72591.0,29130.0,20213.0,8464.0,0.6940000000000001,0.29100000000000004,775.0,24.0,37892.0,34699.0,1.7,87.3,8.0,0.2,0.8,0.0,42771.0,22355.0,16.8,29.9,23.4,24.8,8.8,13.1,82.5,9.7,0.5,4.4,1.2,1.7,20.9,28738.0,73.6,22.6,3.7,0.0,9.0
40,Allegany,NY,42.25748406,-78.02750466,47400.0,17271.0,12670.0,4188.0,0.7340000000000001,0.242,348.0,8.0,24013.0,23387.0,1.5,94.5,1.4,0.3,1.2,0.0,45359.0,22377.0,16.5,31.4,22.2,19.2,10.5,16.6,75.1,7.8,0.6,12.4,1.3,2.8,21.4,20132.0,73.6,19.3,6.8,0.3,7.3
41,Alleghany,NC,36.49360862,-81.12857041,10935.0,6040.0,4501.0,1480.0,0.745,0.245,316.0,1.0,5445.0,5490.0,9.4,87.3,2.4,0.1,0.2,0.0,38944.0,21153.0,21.0,29.7,18.0,22.6,15.3,14.4,82.2,10.5,0.2,2.5,0.4,4.2,25.0,4447.0,70.6,16.9,12.4,0.2,5.7
42,Alleghany,VA,37.78636074,-80.00222498,15489.0,8191.0,5859.0,2243.0,0.715,0.27399999999999997,154.0,4.0,7586.0,7903.0,1.4,91.9,5.5,0.0,0.1,0.1,46020.0,25952.0,19.3,28.3,16.4,22.4,13.2,19.7,86.6,7.7,0.5,0.7,1.7,2.7,24.6,6225.0,81.6,12.2,6.0,0.2,4.4
43,Allegheny,PA,40.46809875,-79.98167747,1229605.0,707837.0,275955.0,421004.0,0.39,0.595,15940.0,419.0,593177.0,636428.0,2.0,79.1,12.7,0.1,3.5,0.0,56333.0,35280.0,12.5,45.0,16.8,23.7,6.1,8.3,72.0,8.4,9.2,4.2,1.5,4.7,26.7,622670.0,86.7,8.6,4.6,0.1,5.9
44,Allen,IN,41.09194313,-85.06800636,367747.0,168964.0,91885.0,72825.0,0.544,0.431,9638.0,237.0,179414.0,188333.0,7.2,74.6,11.3,0.2,3.5,0.0,51091.0,26932.0,14.7,33.7,16.5,24.3,7.6,17.9,84.3,8.7,0.8,1.2,0.9,4.0,21.3,176365.0,87.2,8.6,4.1,0.1,6.3
45,Allen,KS,37.88582951,-95.30030847,12752.0,5842.0,4155.0,1559.0,0.711,0.267,112.0,1.0,6318.0,6434.0,3.3,90.7,1.5,0.1,0.6,0.1,43031.0,23011.0,14.2,27.5,15.6,20.7,8.6,27.5,80.9,10.7,0.9,3.5,0.7,3.3,17.4,6006.0,75.3,15.9,8.4,0.4,3.6
46,Allen,KY,36.75197631,-86.19457544,20628.0,9363.0,7586.0,1642.0,0.81,0.175,566.0,11.0,10227.0,10401.0,1.9,95.4,1.9,0.0,0.2,0.0,40598.0,21652.0,20.0,24.5,16.6,21.8,13.5,23.7,77.9,11.0,0.2,2.5,1.6,6.9,24.1,8443.0,74.8,13.9,11.3,0.1,7.5
47,Allen,OH,40.77285242,-84.10802343,104157.0,46362.0,32052.0,13611.0,0.691,0.294,2580.0,80.0,52614.0,51543.0,2.9,81.2,11.7,0.2,0.7,0.0,47905.0,24551.0,15.0,28.2,18.4,21.8,8.5,23.2,86.4,8.1,0.7,1.6,1.2,2.0,18.9,48351.0,86.1,9.8,4.0,0.1,7.2
48,Allen,LA,30.65385745,-92.82442028,25667.0,9810.0,7574.0,2108.0,0.772,0.215,1856.0,63.0,14542.0,11125.0,4.9,71.1,19.0,1.8,0.7,0.0,42176.0,20103.0,16.6,29.1,23.1,21.3,15.0,11.5,84.3,9.8,0.7,0.7,2.2,2.3,28.3,8577.0,72.8,23.8,3.2,0.2,9.4
49,Allendale,SC,32.98837386,-81.35321066,9402.0,3593.0,835.0,2718.0,0.23199999999999998,0.7559999999999999,424.0,7.0,4952.0,4450.0,3.1,22.5,73.5,0.5,0.0,0.0,23331.0,13439.0,30.4,20.3,24.0,18.8,13.9,22.9,80.4,10.7,2.2,4.1,1.0,1.6,28.3,2668.0,71.0,23.4,5.7,0.0,17.3
50,Alpena,MI,45.03477666,-83.62212411,28730.0,16966.0,10686.0,6000.0,0.63,0.354,180.0,14.0,14169.0,14561.0,1.3,96.0,0.5,0.4,0.4,0.1,40954.0,24030.0,15.0,29.5,19.8,26.1,10.0,14.6,82.9,8.4,0.7,2.7,1.2,3.9,16.9,12665.0,83.0,10.4,6.4,0.2,6.4
51,Alpine,CA,38.59678594,-119.82235940000001,1203.0,736.0,238.0,473.0,0.32299999999999995,0.643,8.0,0.0,664.0,539.0,9.7,64.6,1.5,20.6,0.7,0.0,63438.0,27448.0,19.8,38.2,21.9,18.7,12.8,8.3,62.1,13.2,0.0,9.1,1.6,14.0,21.9,374.0,58.6,30.2,11.2,0.0,14.6
52,Amador,CA,38.44583082,-120.65696000000001,37306.0,22282.0,13571.0,8147.0,0.609,0.366,347.0,16.0,20005.0,17301.0,13.2,79.3,2.0,0.7,1.5,0.2,60636.0,29628.0,10.6,32.7,23.2,24.1,9.9,10.1,80.7,9.2,0.1,2.5,1.1,6.4,32.0,13444.0,63.9,21.0,14.7,0.4,9.3
53,Amelia,VA,37.34081025,-77.98584649,12802.0,7881.0,5390.0,2411.0,0.684,0.306,150.0,6.0,6644.0,6158.0,1.1,72.4,23.7,0.3,0.1,0.0,58535.0,26118.0,13.0,25.8,18.6,27.4,17.2,11.1,86.7,6.0,1.1,1.6,1.8,2.7,38.0,6166.0,76.1,15.8,6.7,1.3,3.3
54,Amherst,VA,37.60308293,-79.14548696,31819.0,17719.0,11020.0,5673.0,0.622,0.32,626.0,6.0,15331.0,16488.0,2.3,75.5,17.6,0.2,0.6,0.0,49677.0,24296.0,13.4,27.9,20.3,24.7,9.8,17.4,82.6,10.6,0.6,1.3,2.3,2.6,24.1,14506.0,78.6,16.2,5.0,0.1,5.6
55,Amite,MS,31.17467303,-90.80501621,12574.0,5974.0,3781.0,2114.0,0.633,0.354,436.0,13.0,6133.0,6441.0,0.2,57.3,42.0,0.0,0.3,0.0,30129.0,19665.0,22.8,24.4,19.2,16.5,19.2,20.6,81.2,12.1,2.2,0.4,1.4,2.7,37.1,4550.0,71.8,17.3,10.2,0.7,10.8
56,Anderson,KS,38.21413251,-95.29272815,7840.0,3720.0,2874.0,765.0,0.773,0.20600000000000002,203.0,0.0,3849.0,3991.0,0.7,95.2,0.2,3.5,0.0,0.0,40986.0,21887.0,13.6,28.4,23.1,17.1,15.0,16.3,77.6,11.8,0.0,2.5,1.4,6.7,24.2,3502.0,72.3,12.0,14.7,1.0,4.2
57,Anderson,KY,38.00671029,-84.99171713,22017.0,13261.0,9651.0,3339.0,0.728,0.252,280.0,1.0,10639.0,11378.0,1.7,94.2,2.4,0.0,0.7,0.0,51681.0,24991.0,12.0,31.8,14.7,27.6,9.4,16.6,86.4,10.7,0.0,0.5,0.2,2.1,26.6,10357.0,69.3,24.1,6.5,0.1,6.3
58,Anderson,SC,34.51828081,-82.63959517,194174.0,96093.0,67565.0,27169.0,0.703,0.28300000000000003,6051.0,209.0,93474.0,100700.0,3.5,77.6,16.0,0.2,0.9,0.0,45551.0,24485.0,15.6,32.3,16.6,23.7,9.9,17.5,86.1,8.4,0.2,1.2,1.2,2.8,22.9,85591.0,80.7,13.4,5.8,0.2,6.7
59,Anderson,TN,36.12684348,-84.19965764,75538.0,35527.0,23163.0,11733.0,0.652,0.33,1869.0,16.0,36803.0,38735.0,2.7,89.6,3.4,0.1,1.4,0.1,47206.0,26972.0,16.3,33.6,19.0,23.6,10.1,13.7,86.8,8.4,0.1,0.8,0.9,3.0,23.3,32213.0,76.1,17.0,6.8,0.1,6.9
60,Anderson,TX,31.81534745,-95.65354823,57747.0,19155.0,15062.0,3934.0,0.7859999999999999,0.205,2979.0,39.0,35292.0,22455.0,17.3,59.7,20.9,0.3,0.5,0.0,42313.0,17466.0,15.7,24.4,23.5,23.4,12.9,15.9,85.1,9.9,0.2,0.5,0.7,3.6,23.7,19102.0,73.2,20.4,6.2,0.2,4.3
61,Andrew,MO,39.98492163,-94.80163024,17358.0,9775.0,7256.0,2351.0,0.742,0.24100000000000002,474.0,8.0,8622.0,8736.0,2.3,94.9,1.3,0.1,0.1,0.0,56658.0,28003.0,9.0,35.4,14.9,22.6,10.6,16.5,86.8,6.6,0.0,2.2,0.5,3.8,22.5,8504.0,78.3,16.1,5.4,0.1,4.2
62,Andrews,TX,32.30468633,-102.63765479999999,17577.0,5856.0,4937.0,849.0,0.843,0.145,667.0,10.0,8980.0,8597.0,55.4,41.1,1.5,0.1,0.2,0.1,70753.0,29903.0,11.9,21.3,13.0,24.2,22.7,18.8,79.8,16.8,0.0,0.0,0.8,2.5,19.8,8054.0,85.3,8.7,5.7,0.3,4.5
64,Angelina,TX,31.25457347,-94.60901487,87700.0,34628.0,25070.0,9136.0,0.7240000000000001,0.264,2317.0,93.0,42707.0,44993.0,21.5,61.2,14.7,0.1,1.1,0.0,46472.0,21974.0,19.1,28.2,20.9,24.0,12.3,14.6,82.9,11.9,0.4,1.7,0.9,2.2,18.7,36164.0,77.2,16.7,6.0,0.1,7.6
65,Anne Arundel,MD,39.00670238,-76.60329337,564600.0,293582.0,123337.0,164255.0,0.42,0.5589999999999999,12256.0,281.0,279581.0,285019.0,7.3,69.6,15.9,0.1,3.6,0.1,94502.0,43258.0,6.1,47.0,15.4,23.0,7.5,7.1,80.1,7.5,3.6,2.3,1.4,5.1,30.2,290628.0,72.2,23.3,4.4,0.1,5.2
66,Anoka,MN,45.27476015,-93.24604565,344861.0,210491.0,104903.0,100892.0,0.498,0.479,9947.0,159.0,172482.0,172379.0,4.2,82.7,5.5,0.5,4.2,0.0,76796.0,34321.0,6.6,36.6,15.9,24.2,9.0,14.2,82.2,7.8,3.4,1.0,1.0,4.5,28.1,187986.0,84.5,11.0,4.3,0.1,4.2
67,Anson,NC,34.97403241,-80.09953279,25531.0,11183.0,5321.0,5788.0,0.47600000000000003,0.518,737.0,11.0,13361.0,12170.0,3.8,44.9,48.6,0.3,1.2,0.0,38123.0,19105.0,22.7,23.4,20.7,15.9,12.1,27.9,85.9,10.6,0.0,1.6,0.5,1.4,27.8,10153.0,73.3,22.0,4.5,0.2,13.4
68,Antelope,NE,42.17695516,-98.06662829999999,6406.0,3583.0,3093.0,452.0,0.863,0.126,182.0,1.0,3213.0,3193.0,3.2,95.3,0.2,0.3,0.4,0.0,46949.0,28091.0,11.5,36.2,15.0,18.9,17.2,12.7,76.7,7.4,0.0,4.9,1.2,9.8,16.0,3203.0,72.0,13.1,14.8,0.1,1.9
69,Antrim,MI,44.99690221,-85.15503082,23133.0,17347.0,9783.0,7289.0,0.564,0.42,143.0,0.0,11479.0,11654.0,2.1,95.0,0.3,0.8,0.3,0.0,50988.0,29307.0,12.6,27.5,21.6,22.5,10.8,17.7,74.7,14.5,0.7,1.9,1.0,7.3,25.0,9771.0,79.6,9.9,10.3,0.2,6.1
70,Apache,AZ,35.39465006,-109.4892383,71602.0,34397.0,11240.0,22730.0,0.327,0.6609999999999999,4003.0,171.0,35355.0,36247.0,6.1,18.5,0.5,72.8,0.3,0.1,32360.0,13865.0,35.9,29.7,25.4,20.6,11.5,12.8,78.0,8.9,1.2,4.6,1.2,6.2,26.7,18197.0,52.7,42.7,4.4,0.1,14.1
71,Appanoose,IA,40.74324454,-92.86865906,12547.0,6506.0,4512.0,1891.0,0.6940000000000001,0.29100000000000004,287.0,3.0,6206.0,6341.0,1.8,95.7,0.6,0.1,0.5,0.0,40377.0,25543.0,17.1,28.7,14.0,25.6,9.1,22.6,80.8,11.1,0.3,2.0,1.0,4.7,19.6,5502.0,77.2,13.0,9.6,0.2,6.3
72,Appling,GA,31.74847232,-82.28909114,18471.0,8341.0,6526.0,1779.0,0.782,0.213,1179.0,38.0,9090.0,9381.0,9.7,69.6,17.9,0.6,0.8,0.0,37089.0,19936.0,24.7,26.0,13.9,18.7,22.8,18.6,82.9,11.3,0.2,2.4,0.6,2.6,22.0,6951.0,78.8,16.2,4.9,0.2,7.7
73,Appomattox,VA,37.37569884,-78.81340003,15462.0,9239.0,6702.0,2418.0,0.725,0.262,308.0,6.0,7507.0,7955.0,1.3,76.7,20.1,0.1,0.2,0.0,54875.0,26347.0,14.4,33.2,16.8,23.3,12.9,13.9,80.1,10.1,0.5,1.8,2.4,5.1,31.9,6890.0,79.1,18.0,2.8,0.1,3.5
74,Aransas,TX,28.10556197,-96.9995047,24832.0,12241.0,9210.0,2896.0,0.752,0.237,351.0,18.0,12448.0,12384.0,27.0,67.7,1.6,0.0,2.0,0.0,44601.0,29999.0,17.8,28.2,23.3,22.1,16.5,9.8,81.4,8.4,0.0,2.8,0.5,6.8,20.8,10387.0,72.9,12.3,14.6,0.2,6.7
75,Arapahoe,CO,39.64977461,-104.3353617,626612.0,346740.0,126124.0,211498.0,0.364,0.61,13956.0,387.0,309190.0,317422.0,18.9,61.3,10.2,0.3,5.6,0.2,69553.0,36951.0,9.9,41.4,16.7,25.0,7.9,9.0,77.4,8.5,4.4,1.5,1.3,6.8,27.7,330548.0,83.0,11.3,5.5,0.2,5.2
76,Archer,TX,33.61569967,-98.68754589,8793.0,4796.0,4300.0,446.0,0.897,0.09300000000000001,165.0,1.0,4335.0,4458.0,8.3,88.6,0.8,0.3,0.4,0.0,63192.0,31103.0,8.8,34.2,13.4,25.3,12.9,14.2,86.0,6.9,0.3,1.0,1.1,4.7,20.4,4344.0,75.6,14.5,9.8,0.0,3.0
77,Archuleta,CO,37.19474156,-107.04768670000001,12592.0,9030.0,5126.0,3693.0,0.568,0.409,68.0,0.0,6400.0,6192.0,18.3,76.7,1.1,2.1,0.7,0.0,48016.0,29344.0,11.6,37.3,17.0,20.0,16.5,9.2,71.0,13.5,0.2,3.7,1.8,9.7,17.2,5696.0,68.0,15.4,15.9,0.8,5.4
78,Arenac,MI,44.0636262,-83.89277559,15238.0,8830.0,5928.0,2773.0,0.6709999999999999,0.314,111.0,3.0,7714.0,7524.0,2.0,94.9,0.5,1.3,0.4,0.0,39947.0,22622.0,18.5,25.6,21.1,22.0,11.6,19.7,83.6,8.2,0.7,3.1,1.5,3.0,27.2,5842.0,82.6,10.2,7.0,0.3,9.6
79,Arkansas,AR,34.29145151,-91.37277296,18352.0,6284.0,4301.0,1813.0,0.684,0.289,726.0,17.0,8785.0,9567.0,3.0,70.2,26.0,0.0,0.0,0.0,38532.0,23766.0,20.7,27.7,15.5,23.6,8.5,24.7,80.8,11.5,0.0,3.1,1.5,3.1,14.6,7920.0,75.7,15.5,8.0,0.9,8.5
80,Arlington,VA,38.8767675,-77.10139853,229534.0,129498.0,22318.0,105344.0,0.172,0.813,4764.0,154.0,114403.0,115131.0,15.5,62.3,8.5,0.3,10.2,0.1,112138.0,67061.0,8.2,69.0,10.5,13.8,4.1,2.7,53.4,6.2,26.0,5.0,2.8,6.6,28.6,143798.0,70.8,24.9,4.2,0.2,3.2
81,Armstrong,PA,40.81665618,-79.46290811,66737.0,36111.0,27284.0,8406.0,0.7559999999999999,0.233,786.0,21.0,33176.0,33561.0,0.7,97.3,1.0,0.0,0.2,0.0,47527.0,25502.0,13.0,28.3,19.0,21.2,13.6,17.9,83.3,8.9,0.7,2.5,1.1,3.5,29.7,29713.0,85.5,9.5,5.0,0.0,6.9
82,Armstrong,TX,34.96507426,-101.35748740000001,1929.0,1112.0,1035.0,75.0,0.9309999999999999,0.067,27.0,1.0,974.0,955.0,10.0,86.6,1.2,1.3,0.0,0.0,68750.0,31219.0,7.5,32.9,15.3,18.0,25.0,8.9,68.8,17.4,0.0,2.3,0.2,11.3,27.4,968.0,63.8,26.3,8.6,1.2,1.8
84,Arthur,NE,41.56896142,-101.6959559,421.0,284.0,260.0,21.0,0.915,0.07400000000000001,5.0,0.0,204.0,217.0,0.0,97.6,0.0,0.0,0.0,0.0,41250.0,21799.0,10.9,46.9,9.6,11.3,20.3,11.9,64.5,14.2,0.0,7.7,0.0,13.6,20.8,177.0,60.5,16.9,21.5,1.1,0.6
85,Ascension,LA,30.20406249,-90.91328409999998,119129.0,62325.0,40687.0,20399.0,0.653,0.327,4299.0,100.0,58718.0,60411.0,5.3,69.4,21.8,0.0,0.9,0.0,74748.0,31520.0,11.7,37.3,15.0,23.5,11.0,13.1,87.1,7.8,0.1,0.5,1.0,3.6,30.0,57496.0,80.7,14.1,5.2,0.1,6.3
86,Ashe,NC,36.43296207,-81.49862729,26833.0,15691.0,11368.0,4149.0,0.7240000000000001,0.264,481.0,3.0,13213.0,13620.0,5.2,92.5,0.8,0.4,0.4,0.0,40293.0,23650.0,19.4,26.2,22.5,22.4,14.0,14.8,79.9,13.3,0.0,1.2,1.4,4.1,26.5,12174.0,76.8,13.4,9.7,0.1,6.3
87,Ashland,OH,40.84772277,-82.27280781,53299.0,25883.0,19002.0,6448.0,0.7340000000000001,0.249,511.0,9.0,26005.0,27294.0,1.3,96.0,0.8,0.0,0.6,0.0,50893.0,24612.0,14.2,29.2,16.9,20.7,10.6,22.5,84.9,6.5,0.3,3.9,1.1,3.3,24.4,25070.0,85.4,10.1,4.1,0.4,4.2
88,Ashland,WI,46.31956891,-90.67837132,15779.0,8757.0,3841.0,4801.0,0.439,0.5479999999999999,301.0,3.0,7954.0,7825.0,2.6,82.7,0.4,10.6,0.4,0.0,41505.0,22983.0,14.6,31.2,23.5,20.4,10.0,14.9,74.2,10.5,1.2,8.4,1.3,4.4,16.5,7366.0,76.3,17.1,6.6,0.0,7.2
89,Ashley,AR,33.19153461,-91.76984709999999,20771.0,7926.0,5548.0,2125.0,0.7,0.268,573.0,11.0,10126.0,10645.0,5.2,68.0,25.6,0.2,0.0,0.0,36407.0,20703.0,21.3,27.5,16.8,18.9,13.7,23.0,85.1,7.8,0.2,2.3,3.0,1.6,20.4,7905.0,78.8,18.1,2.7,0.4,9.9
90,Ashtabula,OH,41.70860332,-80.74830218,98622.0,43253.0,26225.0,16207.0,0.606,0.375,890.0,48.0,49509.0,49113.0,4.0,89.9,3.4,0.2,0.5,0.0,43017.0,21936.0,19.8,26.1,18.4,21.4,9.2,24.9,84.7,8.5,0.6,1.8,1.7,2.7,25.9,40003.0,83.0,11.0,5.9,0.2,7.4
91,Asotin,WA,46.18894415,-117.2022851,22259.0,11795.0,7259.0,4233.0,0.615,0.359,294.0,8.0,10594.0,11665.0,3.6,91.2,0.4,0.9,0.9,0.1,47483.0,26878.0,13.5,30.0,19.5,27.3,11.1,12.1,81.1,9.0,0.3,2.6,2.8,4.1,15.4,9824.0,78.6,16.1,5.2,0.1,6.7
92,Assumption,LA,29.89946234,-91.06461642,22881.0,11235.0,7271.0,3833.0,0.647,0.341,813.0,24.0,11085.0,11796.0,2.8,65.8,29.7,0.6,0.3,0.0,48656.0,25765.0,15.7,26.1,18.6,20.9,18.3,16.1,87.3,8.2,0.2,1.0,1.8,1.5,29.6,9375.0,81.4,13.9,4.1,0.7,6.9
93,Atascosa,TX,28.89333001,-98.52730485,48139.0,18085.0,12020.0,5865.0,0.665,0.324,1287.0,37.0,24051.0,24088.0,63.5,34.2,0.7,0.1,0.4,0.0,55194.0,23973.0,14.6,25.8,21.1,19.7,18.7,14.7,76.9,15.0,0.1,1.1,1.0,5.9,30.8,20208.0,78.3,14.7,6.9,0.0,6.1
94,Atchison,KS,39.53185661,-95.30870026,16466.0,7312.0,4826.0,2314.0,0.66,0.316,537.0,6.0,7957.0,8509.0,2.9,88.4,3.1,0.4,0.3,0.1,46640.0,25494.0,18.5,33.0,17.1,24.1,8.0,17.8,76.9,8.6,0.0,7.6,0.8,6.1,19.8,7669.0,79.4,14.8,5.5,0.3,6.3
95,Atchison,MO,40.43238737,-95.42970639,5335.0,2814.0,2199.0,564.0,0.7809999999999999,0.2,86.0,1.0,2642.0,2693.0,1.2,96.6,0.4,0.4,0.6,0.0,45259.0,28209.0,12.1,31.9,21.6,18.4,10.5,17.6,83.9,8.1,0.4,3.7,0.5,3.5,17.9,2666.0,75.1,17.0,7.7,0.2,4.1
96,Athens,OH,39.33425634,-82.04278644,65563.0,24876.0,10386.0,14047.0,0.418,0.565,1388.0,2.0,32641.0,32922.0,1.8,89.7,2.5,0.2,2.8,0.1,37191.0,20062.0,30.2,36.5,23.5,22.8,7.8,9.4,71.7,7.7,0.7,13.7,1.9,4.5,20.2,27434.0,65.9,29.2,4.7,0.2,8.7
97,Atkinson,GA,31.29633502,-82.87545866,8313.0,3155.0,2300.0,825.0,0.7290000000000001,0.261,486.0,6.0,4112.0,4201.0,24.6,56.6,17.8,0.7,0.0,0.0,33063.0,19904.0,27.4,21.6,9.7,22.2,23.0,23.5,82.7,11.6,0.0,2.2,2.2,1.2,22.9,3289.0,82.8,11.6,5.6,0.0,8.4
98,Atlantic,NJ,39.47538693,-74.65848483,272926.0,131980.0,60957.0,68978.0,0.462,0.523,5341.0,267.0,132171.0,140755.0,18.5,56.4,14.3,0.2,8.4,0.0,57514.0,29941.0,15.3,31.0,29.3,23.1,8.2,8.4,77.1,7.5,6.5,3.5,2.9,2.5,24.2,127737.0,79.6,15.7,4.7,0.1,10.9
99,Atoka,OK,34.37366573,-96.03802487,13899.0,5389.0,4557.0,765.0,0.846,0.142,467.0,1.0,7340.0,6559.0,3.4,71.8,3.7,11.4,0.7,0.1,37106.0,19439.0,19.8,28.9,19.8,21.3,13.0,16.9,81.2,9.2,0.1,3.1,0.9,5.4,25.3,4664.0,68.3,22.2,9.2,0.4,6.6
100,Attala,MS,33.08658803,-89.57838564,18731.0,8832.0,5178.0,3542.0,0.586,0.401,819.0,27.0,8860.0,9871.0,2.0,54.0,42.2,0.1,0.4,0.0,33815.0,20617.0,22.6,26.1,18.5,19.6,13.7,22.2,80.1,13.7,0.4,1.0,3.9,0.9,28.3,6776.0,73.2,22.2,4.7,0.0,10.3
101,Audrain,MO,39.215877,-91.84242683,25763.0,10660.0,7727.0,2703.0,0.725,0.254,654.0,10.0,11744.0,14019.0,2.9,87.1,6.1,0.2,0.2,0.0,44056.0,21226.0,16.7,26.8,20.5,20.8,10.3,21.5,80.8,10.0,0.0,3.1,2.0,4.1,21.0,10622.0,77.7,15.5,6.6,0.2,7.4
102,Audubon,IA,41.6844628,-94.90581859,5711.0,3416.0,2295.0,1071.0,0.672,0.314,192.0,1.0,2814.0,2897.0,0.4,97.1,0.4,0.0,0.5,0.0,48750.0,31523.0,11.1,29.6,17.3,22.0,14.9,16.1,81.9,8.8,0.6,2.6,1.0,5.2,19.2,2882.0,73.1,13.6,13.0,0.3,2.7
103,Auglaize,OH,40.55998859,-84.22421429999999,45778.0,25396.0,20451.0,4583.0,0.805,0.18,1279.0,19.0,22866.0,22912.0,1.6,96.0,0.4,0.2,0.5,0.1,59516.0,28340.0,9.0,29.8,14.5,20.6,8.2,26.8,87.6,6.8,0.1,1.7,1.1,2.7,19.6,23229.0,85.3,9.9,4.8,0.1,3.4
104,Augusta,VA,38.16404586,-79.12461614,74390.0,42162.0,30714.0,10840.0,0.728,0.257,718.0,9.0,37695.0,36695.0,2.5,91.4,4.0,0.2,0.6,0.1,59544.0,30088.0,8.8,32.8,16.7,22.9,9.3,18.3,85.7,7.1,0.4,1.0,0.9,5.0,23.7,34960.0,76.8,16.9,6.0,0.2,4.1
105,Aurora,SD,43.71757685,-98.56050467,2739.0,1405.0,1052.0,317.0,0.7490000000000001,0.226,205.0,0.0,1445.0,1294.0,6.7,88.8,1.6,2.3,0.0,0.0,57257.0,30872.0,6.2,35.6,16.9,16.8,17.6,13.1,69.7,10.9,0.0,6.9,3.0,9.5,16.4,1462.0,67.0,16.2,16.6,0.3,1.4
106,Austin,TX,29.88548725,-96.27736949,29292.0,14368.0,11282.0,2931.0,0.785,0.204,521.0,10.0,14474.0,14818.0,25.9,63.3,8.9,0.0,0.2,0.0,62614.0,30101.0,13.4,30.9,15.7,23.6,12.5,17.4,81.6,10.6,0.1,1.9,1.3,4.6,31.1,13509.0,77.5,13.2,9.3,0.0,5.4
107,Autauga,AL,32.53952745,-86.64408227,55036.0,27639.0,19764.0,7450.0,0.715,0.27,2173.0,31.0,26899.0,28137.0,2.7,75.4,18.9,0.3,0.9,0.0,55317.0,27824.0,13.7,35.3,18.0,23.2,8.1,15.4,86.0,9.6,0.1,0.6,1.3,2.5,25.8,24112.0,74.1,20.2,5.6,0.1,5.2
108,Avery,NC,36.07569796,-81.92308483,17535.0,9339.0,7092.0,2171.0,0.759,0.23199999999999998,647.0,1.0,9573.0,7962.0,5.1,89.0,4.2,0.5,0.6,0.0,37109.0,21704.0,14.7,29.8,25.7,20.7,14.1,9.7,78.6,12.4,0.6,4.1,0.9,3.4,22.5,6778.0,78.3,13.2,8.1,0.4,5.5
109,Avoyelles,LA,31.07796211,-92.00079449,41095.0,17292.0,12028.0,4979.0,0.696,0.28800000000000003,1757.0,62.0,20693.0,20402.0,1.8,65.3,30.1,1.2,0.1,0.1,36763.0,20199.0,23.7,31.6,24.4,17.4,12.6,14.0,85.2,9.0,0.2,2.0,2.0,1.6,30.2,14753.0,75.3,19.7,4.9,0.1,7.7
110,Baca,CO,37.31940883,-102.5603223,3581.0,2193.0,1840.0,313.0,0.8390000000000001,0.14300000000000002,37.0,0.0,1732.0,1849.0,10.5,85.7,1.5,1.1,0.0,0.0,35898.0,22853.0,19.5,39.7,19.2,15.3,19.0,6.8,71.3,9.8,0.0,9.3,1.3,8.3,14.5,1655.0,55.0,25.3,16.9,2.8,4.5
111,Bacon,GA,31.55456473,-82.45936528,11279.0,4668.0,4018.0,625.0,0.861,0.134,640.0,16.0,5599.0,5680.0,8.5,73.6,14.6,0.0,0.9,0.2,38824.0,18856.0,23.2,30.7,12.0,22.4,18.6,16.2,79.1,15.1,1.2,1.3,1.3,2.1,20.4,4345.0,77.7,16.1,6.2,0.0,3.1
112,Bailey,TX,34.06854817,-102.8299707,7098.0,1854.0,1430.0,407.0,0.7709999999999999,0.22,311.0,5.0,3678.0,3420.0,62.7,34.6,1.5,0.1,0.9,0.2,43523.0,18662.0,22.3,22.9,20.7,17.4,24.0,15.0,69.6,8.2,0.0,5.9,7.7,8.6,16.5,3157.0,77.1,11.8,10.4,0.8,2.2
113,Baker,FL,30.33060121,-82.28467476,27537.0,14082.0,11911.0,2037.0,0.846,0.145,1805.0,24.0,14422.0,13115.0,2.4,81.9,13.8,0.4,0.7,0.0,59506.0,22440.0,17.2,29.9,19.0,26.7,10.6,13.9,84.9,9.1,0.0,0.1,2.4,3.5,29.9,10567.0,69.1,26.7,4.0,0.2,5.8
114,Baker,GA,31.32669878,-84.44218806,3251.0,1555.0,897.0,652.0,0.5770000000000001,0.419,92.0,6.0,1547.0,1704.0,5.4,52.1,41.3,0.2,0.6,0.5,43867.0,22270.0,19.5,28.5,11.4,27.8,19.9,12.4,88.8,8.0,0.0,1.1,0.6,1.5,27.4,1286.0,70.1,23.1,6.8,0.0,2.5
115,Baker,OR,44.70915557,-117.6749883,15980.0,9878.0,7316.0,2332.0,0.741,0.23600000000000002,144.0,3.0,8156.0,7824.0,3.9,91.1,0.9,1.0,0.8,0.4,43765.0,25820.0,15.3,33.6,15.4,20.6,15.4,15.0,71.2,13.2,0.0,5.3,2.9,7.4,16.0,6354.0,70.7,18.6,10.4,0.3,7.3
116,Baldwin,AL,30.72774991,-87.72207058,203360.0,108945.0,83055.0,24344.0,0.762,0.223,6966.0,71.0,99527.0,103833.0,4.4,83.1,9.5,0.8,0.7,0.0,52562.0,29364.0,11.8,35.7,18.2,25.6,9.7,10.8,84.7,7.6,0.1,0.8,1.1,5.6,27.0,89527.0,80.7,12.9,6.3,0.1,5.5
117,Baldwin,GA,33.06882326,-83.24701748,45527.0,18251.0,8903.0,9140.0,0.488,0.501,2337.0,65.0,22893.0,22634.0,2.2,52.9,41.4,0.3,1.5,0.2,37008.0,20114.0,27.8,30.3,26.9,20.2,9.8,12.8,85.2,8.8,0.4,2.5,1.4,1.7,21.7,17647.0,68.6,27.7,3.7,0.0,9.0
118,Ballard,KY,37.05842757,-88.99427697,8152.0,4225.0,3356.0,825.0,0.794,0.195,81.0,1.0,4077.0,4075.0,1.2,93.0,3.9,0.2,0.4,0.0,42988.0,25063.0,18.2,27.7,17.3,23.8,9.9,21.3,89.3,3.8,2.2,0.4,0.8,3.6,23.6,3394.0,81.4,11.9,6.7,0.0,4.7
119,Baltimore,MD,39.45784712,-76.62911955,828637.0,346035.0,130085.0,210155.0,0.376,0.607,21194.0,675.0,392930.0,435707.0,5.1,58.7,27.5,0.2,5.9,0.0,71810.0,37270.0,9.1,43.4,16.6,24.4,7.0,8.6,79.2,8.7,4.8,1.8,1.5,4.0,29.5,420974.0,77.2,17.8,4.8,0.2,5.5
121,Bamberg,SC,33.21927586,-81.05659969,14842.0,6482.0,2417.0,4010.0,0.373,0.619,699.0,34.0,7218.0,7624.0,1.9,35.6,61.5,0.1,0.4,0.0,32330.0,19256.0,24.5,32.1,19.4,17.3,11.6,19.5,81.3,11.1,1.2,3.8,0.9,1.7,24.4,5592.0,71.4,23.3,5.3,0.0,6.5
122,Bandera,TX,29.74619598,-99.24598147,21316.0,12703.0,10050.0,2503.0,0.7909999999999999,0.19699999999999998,190.0,8.0,10570.0,10746.0,18.0,78.8,1.0,0.2,0.2,0.0,56413.0,29177.0,16.5,35.7,17.4,22.7,17.5,6.7,80.2,9.8,0.1,1.9,0.4,7.6,37.0,8682.0,70.8,17.9,11.0,0.3,5.7
123,Banks,GA,34.35607081,-83.49644388,18363.0,8801.0,7795.0,932.0,0.8859999999999999,0.106,574.0,8.0,9245.0,9118.0,6.4,88.4,2.5,0.2,1.2,0.0,42182.0,19451.0,14.3,24.8,17.0,22.4,16.4,19.5,80.6,12.5,0.0,2.0,0.6,4.4,30.2,7796.0,80.5,11.6,7.0,0.9,6.6
124,Banner,NE,41.54634427,-103.7114332,728.0,410.0,362.0,43.0,0.883,0.105,4.0,0.0,356.0,372.0,7.8,89.4,0.5,0.0,0.0,0.0,55000.0,30736.0,8.9,52.0,5.5,17.3,13.8,11.3,62.5,10.9,0.0,5.1,0.0,21.5,24.8,398.0,50.3,24.6,25.1,0.0,3.2
125,Bannock,ID,42.67002716,-112.2233311,84113.0,39553.0,23331.0,14682.0,0.59,0.371,2732.0,14.0,41867.0,42246.0,8.3,84.5,0.6,2.7,1.2,0.2,47390.0,23872.0,17.6,35.5,18.2,25.2,9.0,12.2,76.2,11.1,1.5,4.2,2.6,4.3,17.6,36989.0,73.1,20.9,5.9,0.2,6.3
126,Baraga,MI,46.6720582,-88.36363591,8580.0,4036.0,2512.0,1478.0,0.622,0.366,125.0,4.0,5112.0,3468.0,1.5,73.1,15.8,4.7,0.5,0.0,42757.0,18975.0,14.4,25.8,22.5,24.1,10.1,17.5,83.2,8.5,0.0,3.5,0.9,4.0,19.0,2485.0,77.6,16.6,5.4,0.4,6.0
127,Barber,KS,37.2288586,-98.68460053,4905.0,2313.0,1992.0,284.0,0.861,0.12300000000000001,57.0,0.0,2525.0,2380.0,3.2,92.4,0.7,1.5,0.7,0.0,52075.0,28840.0,15.9,29.3,16.0,19.5,16.6,18.6,82.8,8.5,0.0,2.4,1.5,4.8,15.8,2391.0,69.6,16.8,13.2,0.5,2.5
128,Barbour,AL,31.868263,-85.3871286,26201.0,10457.0,5605.0,4772.0,0.536,0.456,1061.0,9.0,13976.0,12225.0,4.2,45.7,47.8,0.2,0.6,0.0,33368.0,17561.0,27.2,25.0,16.8,22.6,11.5,24.1,83.4,11.1,0.3,2.2,1.7,1.3,23.4,8878.0,74.1,19.1,6.5,0.3,12.4
129,Barbour,WV,39.1307219,-80.00350858,16790.0,6677.0,5116.0,1457.0,0.7659999999999999,0.218,187.0,1.0,8165.0,8625.0,0.9,95.7,0.9,0.4,0.7,0.0,37516.0,20762.0,22.5,26.3,21.7,23.7,15.9,12.5,78.3,11.9,0.3,4.5,1.4,3.8,29.2,6421.0,79.8,16.0,4.1,0.1,8.9
130,Barnes,ND,46.93579637,-98.06605978,10971.0,5507.0,3532.0,1800.0,0.6409999999999999,0.327,410.0,1.0,5397.0,5574.0,1.9,92.9,0.9,2.0,0.5,0.0,56237.0,32517.0,10.0,35.1,20.8,15.8,14.6,13.7,77.7,10.2,1.0,5.5,1.3,4.3,17.0,5780.0,67.8,19.1,12.8,0.3,3.1
131,Barnstable,MA,41.72980578,-70.28854339,213900.0,27051.0,10824.0,15685.0,0.4,0.58,2051.0,185.0,102152.0,111748.0,2.7,90.2,2.7,0.4,1.5,0.1,68048.0,40886.0,7.5,37.9,21.2,23.4,10.6,7.0,81.1,7.2,1.3,2.5,1.5,6.3,23.3,104246.0,75.1,12.6,12.1,0.2,5.5
132,Barnwell,SC,33.26679302,-81.43584352,21788.0,10321.0,5492.0,4720.0,0.532,0.457,887.0,25.0,10369.0,11419.0,2.3,51.2,45.1,0.1,0.4,0.0,34035.0,20018.0,27.0,23.9,20.0,23.5,12.6,20.0,87.0,8.4,0.3,1.5,1.1,1.7,27.6,8004.0,76.4,18.1,5.4,0.1,10.1
133,Barren,KY,36.96469836,-85.93338945,43418.0,20079.0,14646.0,5115.0,0.7290000000000001,0.255,1358.0,13.0,21123.0,22295.0,3.0,90.7,3.9,0.2,0.5,0.0,39658.0,20493.0,22.9,28.4,14.7,21.5,9.8,25.6,80.3,11.7,0.2,1.7,1.0,5.1,20.7,18377.0,79.0,13.6,7.0,0.4,7.6
134,Barron,WI,45.42372701,-91.84833627,45358.0,25346.0,15803.0,9194.0,0.623,0.363,1320.0,7.0,22759.0,22599.0,2.4,93.8,1.2,0.8,0.7,0.0,49257.0,26935.0,11.5,28.9,16.2,19.2,12.1,23.5,80.2,7.5,0.2,4.1,1.5,6.3,19.6,22255.0,80.0,11.1,8.6,0.3,3.6
135,Barrow,GA,33.99148694,-83.71436292,75099.0,38017.0,26804.0,10453.0,0.705,0.275,2672.0,51.0,37033.0,38066.0,10.0,73.0,11.1,0.1,3.6,0.0,56119.0,22978.0,13.2,28.0,13.8,29.1,12.5,16.6,85.1,9.9,0.3,0.5,0.8,3.3,33.2,34265.0,82.9,12.5,4.5,0.1,6.8
136,Barry,MI,42.59513984,-85.30834519,59607.0,35914.0,23473.0,11804.0,0.654,0.32899999999999996,803.0,6.0,29958.0,29649.0,2.7,94.6,0.4,0.2,0.5,0.0,57312.0,27166.0,9.3,29.0,16.4,22.6,12.5,19.5,84.8,7.6,0.2,2.5,0.8,4.2,28.4,27877.0,84.4,9.4,6.1,0.1,6.2
137,Barry,MO,36.70978521,-93.82919888,35398.0,15598.0,12425.0,2948.0,0.797,0.18899999999999997,912.0,9.0,17782.0,17616.0,9.0,86.5,0.3,0.6,1.5,0.0,40638.0,20840.0,20.5,24.7,15.6,20.1,13.1,26.5,79.8,11.6,0.4,2.2,1.3,4.7,23.4,14330.0,80.4,10.5,9.0,0.0,8.0
138,Bartholomew,IN,39.20744865,-85.89558181,81024.0,36299.0,22409.0,12934.0,0.617,0.35600000000000004,1597.0,59.0,40688.0,40336.0,6.5,83.2,1.7,0.2,6.3,0.1,57331.0,29955.0,12.4,40.7,14.4,18.9,6.4,19.5,85.1,8.6,0.6,1.3,1.7,2.7,19.6,39722.0,88.0,7.6,4.3,0.1,5.0
139,Barton,KS,38.47889676,-98.75636726,27067.0,10961.0,8480.0,2302.0,0.774,0.21,803.0,7.0,13445.0,13622.0,14.5,82.0,1.1,0.3,0.1,0.2,46070.0,26264.0,15.7,29.1,17.7,23.4,14.2,15.6,82.2,10.9,0.7,1.8,0.9,3.5,17.9,13580.0,77.1,15.2,7.5,0.2,4.2
140,Barton,MO,37.50207671,-94.34757022,11942.0,6077.0,5168.0,844.0,0.85,0.139,453.0,4.0,5924.0,6018.0,2.5,92.7,0.2,1.9,0.6,0.0,41184.0,24628.0,20.9,32.7,11.7,22.7,11.5,21.4,81.8,6.4,0.3,4.0,1.5,5.9,22.8,5304.0,73.7,14.6,11.0,0.7,5.4
141,Bartow,GA,34.23732119,-84.83887523,102623.0,50465.0,37673.0,12091.0,0.747,0.24,3714.0,96.0,50888.0,51735.0,8.2,78.2,10.5,0.2,0.9,0.0,52393.0,24931.0,14.2,29.9,16.6,22.8,12.1,18.6,81.9,9.7,0.8,0.7,1.6,5.3,27.9,46890.0,81.4,13.0,5.4,0.2,6.0
142,Bastrop,TX,30.10370699,-97.31206354,80306.0,36709.0,20486.0,15452.0,0.5579999999999999,0.42100000000000004,2023.0,32.0,40845.0,39461.0,36.0,53.7,7.7,0.4,0.9,0.0,59185.0,25172.0,13.3,33.3,16.3,21.6,16.2,12.6,80.7,12.0,0.2,1.4,1.8,3.9,34.4,33500.0,71.5,20.2,8.1,0.2,7.7
143,Bates,MO,38.25271289,-94.34113157,16405.0,8435.0,6595.0,1672.0,0.782,0.198,271.0,8.0,8010.0,8395.0,2.1,94.5,1.2,0.4,0.2,0.1,45605.0,25873.0,14.3,27.1,20.1,20.9,16.1,15.9,74.6,12.7,0.6,3.0,1.0,8.1,30.1,7261.0,74.5,13.6,11.6,0.3,5.2
144,Bath,KY,38.14735938,-83.74588932,12189.0,5627.0,3986.0,1573.0,0.708,0.28,138.0,1.0,6012.0,6177.0,1.5,95.4,1.0,0.1,0.3,0.0,38763.0,20059.0,24.0,26.3,17.9,17.5,9.2,29.2,82.3,12.4,0.2,1.3,0.4,3.4,25.5,4462.0,75.1,16.9,7.9,0.1,7.8
145,Bath,VA,38.05852573,-79.73912095,4458.0,2513.0,1824.0,674.0,0.726,0.268,26.0,0.0,2311.0,2147.0,5.7,85.3,2.7,0.0,0.3,0.0,44483.0,28195.0,9.3,21.6,30.4,19.9,11.0,17.0,82.7,4.5,1.5,5.0,0.0,6.3,24.5,2073.0,81.5,17.0,1.5,0.0,9.1
146,Baxter,AR,36.28784385,-92.33782872,41093.0,20968.0,15810.0,4625.0,0.754,0.221,776.0,11.0,19857.0,21236.0,2.1,95.1,0.2,0.5,0.4,0.0,40072.0,24737.0,12.6,30.1,19.0,22.9,10.5,17.6,84.1,9.2,0.4,2.4,0.7,3.3,16.4,15926.0,79.5,11.7,8.6,0.2,5.8
147,Bay,FL,30.26548745,-85.62122584,180117.0,93131.0,66063.0,25572.0,0.7090000000000001,0.275,6879.0,134.0,89542.0,90575.0,6.0,77.3,10.7,0.7,2.3,0.0,50283.0,26742.0,15.4,32.0,22.2,25.1,10.2,10.5,81.7,10.5,1.2,1.3,2.0,3.3,22.8,80334.0,77.5,16.0,6.2,0.4,6.4
148,Bay,MI,43.70639106,-83.98731479,105350.0,60985.0,33347.0,26653.0,0.547,0.43700000000000006,1602.0,65.0,51875.0,53475.0,5.2,90.4,1.5,0.2,0.6,0.0,45983.0,25462.0,16.3,29.4,20.4,25.0,8.8,16.4,86.2,7.6,0.7,1.4,0.9,3.2,22.1,46195.0,83.8,10.6,5.5,0.1,7.4
149,Bayfield,WI,46.52868768,-91.19716729,15004.0,10880.0,4617.0,6147.0,0.424,0.565,280.0,2.0,7642.0,7362.0,1.7,85.0,0.6,10.0,0.5,0.0,50110.0,28272.0,11.0,36.0,20.4,18.5,13.9,11.3,75.8,10.3,2.2,4.0,1.1,6.5,23.8,6994.0,67.5,21.5,10.6,0.5,5.5
150,Baylor,TX,33.61640794,-99.21352901,3602.0,1680.0,1478.0,179.0,0.88,0.107,46.0,3.0,1740.0,1862.0,10.1,83.8,3.2,0.0,0.0,0.0,36157.0,30820.0,13.1,34.2,17.9,27.2,14.9,5.9,89.5,7.0,0.0,1.6,1.4,0.6,10.6,1434.0,70.9,17.2,11.9,0.0,2.3
151,Beadle,SD,44.41464384,-98.27858469,18163.0,7081.0,4808.0,2107.0,0.679,0.298,1397.0,15.0,9219.0,8944.0,9.1,79.5,0.4,1.4,9.3,0.0,48995.0,24950.0,23.7,29.7,13.0,23.5,9.4,24.3,80.1,11.3,1.2,2.4,1.4,3.6,13.9,9105.0,77.4,12.9,9.5,0.3,2.1
152,Bear Lake,ID,42.28269683,-111.32892379999998,5942.0,3215.0,2814.0,350.0,0.875,0.109,77.0,1.0,2928.0,3014.0,4.1,93.7,0.8,0.2,0.7,0.0,50603.0,24411.0,14.5,23.1,20.2,24.2,18.6,13.9,71.6,16.8,0.3,3.8,1.1,6.4,23.0,2523.0,75.6,14.5,9.4,0.4,3.7
153,Beaufort,NC,35.48531943,-76.84325809,47316.0,26128.0,16352.0,9575.0,0.626,0.366,1442.0,45.0,22596.0,24720.0,7.6,65.8,25.6,0.0,0.1,0.0,41101.0,24657.0,19.1,31.5,17.4,20.8,14.1,16.1,87.2,5.6,0.2,1.8,0.9,4.3,25.1,19051.0,76.3,16.4,7.2,0.1,9.0
154,Beaufort,SC,32.39226291,-80.72619758,179316.0,97835.0,53194.0,43419.0,0.544,0.444,6214.0,93.0,88524.0,90792.0,11.3,67.4,18.1,0.2,1.2,0.1,60603.0,34966.0,11.9,34.7,23.8,23.2,10.8,7.5,76.4,11.4,0.5,2.2,2.7,6.9,22.4,74171.0,79.9,13.6,6.2,0.2,6.3
155,Beauregard,LA,30.64836518,-93.34173616,36598.0,16357.0,13575.0,2542.0,0.83,0.155,1086.0,40.0,18631.0,17967.0,3.7,80.0,12.7,0.6,0.4,0.0,47350.0,24551.0,17.3,29.2,16.2,21.2,18.2,15.3,80.6,12.0,0.3,1.8,3.6,1.6,30.1,14174.0,76.5,18.2,5.2,0.1,7.4
156,Beaver,OK,36.7496847,-100.4758872,5445.0,2178.0,1968.0,190.0,0.904,0.087,99.0,1.0,2701.0,2744.0,22.1,76.4,0.1,0.6,0.0,0.0,52571.0,25935.0,11.7,33.8,12.6,19.1,18.5,15.9,81.7,7.2,0.7,2.7,1.2,6.5,19.3,2492.0,70.3,17.5,11.1,1.1,3.9
157,Beaver,PA,40.6825484,-80.34921611,168161.0,93083.0,54108.0,37747.0,0.581,0.406,2343.0,140.0,81606.0,86555.0,1.5,89.7,5.9,0.0,0.5,0.0,53981.0,29162.0,10.8,33.8,17.4,25.4,8.8,14.6,82.2,8.8,2.0,2.3,0.9,4.0,25.6,81802.0,86.4,9.3,4.2,0.1,5.6
158,Beaver,UT,38.35657051,-113.2342232,6414.0,3076.0,2673.0,356.0,0.8690000000000001,0.11599999999999999,0.0,0.0,3296.0,3118.0,10.9,88.7,0.0,0.1,0.2,0.0,47878.0,21128.0,10.5,23.9,18.7,25.1,15.9,16.4,80.2,12.5,0.2,2.6,1.0,3.4,16.0,2653.0,77.1,16.6,5.8,0.5,4.7
159,Beaverhead,MT,45.13434354,-112.89846940000001,9360.0,5661.0,3923.0,1608.0,0.693,0.284,284.0,1.0,4694.0,4666.0,4.2,91.3,0.1,2.0,0.6,0.0,43880.0,28420.0,16.1,34.1,19.4,21.8,15.0,9.7,70.4,8.0,0.0,10.8,2.7,8.0,14.2,4647.0,69.0,17.4,13.0,0.6,4.6
160,Becker,MN,46.93479392,-95.67158144,33552.0,19418.0,12452.0,6592.0,0.6409999999999999,0.33899999999999997,696.0,4.0,16672.0,16880.0,1.9,86.6,0.5,7.4,0.6,0.0,55884.0,28525.0,12.7,32.8,17.7,18.8,13.8,16.8,78.9,8.9,0.5,3.2,1.3,7.2,22.4,16143.0,75.1,16.0,8.7,0.2,3.6
161,Beckham,OK,35.26862449,-99.68128023,22971.0,7948.0,6767.0,1048.0,0.851,0.132,949.0,11.0,12263.0,10708.0,14.2,75.7,3.3,1.4,0.9,0.1,49625.0,23883.0,12.6,25.6,17.9,24.2,14.9,17.4,87.6,7.6,0.2,1.5,0.8,2.4,17.0,9296.0,78.1,14.5,6.4,1.0,4.6
162,Bedford,PA,40.00522157,-78.48998442,48891.0,27574.0,23025.0,4367.0,0.835,0.158,462.0,7.0,24404.0,24487.0,1.1,96.9,0.4,0.1,0.2,0.0,48703.0,24219.0,13.6,25.7,18.3,21.2,13.4,21.4,80.8,10.0,0.4,2.6,1.5,4.6,27.2,22161.0,80.0,11.0,8.6,0.3,5.9
163,Bedford,TN,35.51123746,-86.45549096,46854.0,19039.0,14317.0,4443.0,0.752,0.233,1830.0,23.0,23127.0,23727.0,11.8,77.8,6.6,0.1,0.4,0.1,47117.0,22953.0,16.9,24.7,14.8,21.5,12.0,27.0,81.8,12.6,0.1,1.1,1.0,3.5,25.1,21387.0,78.5,12.7,8.6,0.2,5.6
164,Bedford,VA,37.3080028,-79.5281964,77319.0,48484.0,35600.0,12176.0,0.7340000000000001,0.251,1308.0,18.0,38012.0,39307.0,2.0,88.2,7.0,0.1,1.3,0.0,59405.0,30633.0,8.9,34.9,16.5,24.1,9.9,14.7,83.8,9.2,0.2,1.0,1.4,4.3,26.9,36735.0,81.7,13.2,5.0,0.1,4.4
165,Bee,TX,28.41761668,-97.74215593,32729.0,9405.0,5999.0,3280.0,0.638,0.349,1868.0,39.0,19883.0,12846.0,58.2,32.2,8.2,0.5,0.5,0.0,45415.0,17504.0,19.7,20.9,24.2,26.1,12.1,16.7,80.3,12.6,0.0,2.6,1.8,2.6,21.9,10125.0,71.0,23.3,5.5,0.2,6.3
167,Bell,KY,36.73355174,-83.67766671,27469.0,10044.0,8140.0,1789.0,0.81,0.17800000000000002,825.0,17.0,13385.0,14084.0,0.3,94.5,3.3,0.1,0.2,0.0,23558.0,14754.0,38.0,24.6,19.0,22.4,13.7,20.3,75.8,15.6,0.1,2.9,2.6,2.9,20.6,7559.0,77.8,16.9,5.1,0.1,9.0
168,Bell,TX,31.03736027,-97.4785025,336506.0,125867.0,67113.0,56032.0,0.5329999999999999,0.445,6560.0,100.0,168147.0,168359.0,24.0,47.2,21.0,0.3,2.8,0.7,52583.0,25017.0,14.3,33.1,19.9,25.9,9.4,11.7,81.0,11.6,0.4,2.1,1.4,3.5,20.6,135361.0,70.7,24.3,4.9,0.1,8.3
169,Belmont,OH,40.01625942,-80.9924051,68889.0,32534.0,23092.0,9007.0,0.71,0.27699999999999997,885.0,27.0,35167.0,33722.0,0.9,93.0,4.1,0.2,0.4,0.0,46484.0,25326.0,14.1,28.3,20.4,22.4,14.1,14.8,88.3,6.0,0.4,2.3,0.9,2.0,23.2,29211.0,83.5,12.7,3.7,0.1,6.8
170,Beltrami,MN,47.97373527,-94.93732139,45847.0,24131.0,12188.0,11426.0,0.505,0.473,1016.0,11.0,22775.0,23072.0,2.2,72.5,0.9,20.4,0.8,0.1,45923.0,23748.0,19.0,33.7,22.0,23.4,10.3,10.6,75.6,11.1,2.1,3.7,1.3,6.1,19.8,20931.0,67.8,25.5,6.5,0.2,8.7
171,Ben Hill,GA,31.76095874,-83.22145359,17272.0,6560.0,4110.0,2392.0,0.627,0.365,887.0,34.0,8259.0,9013.0,6.0,56.5,36.2,0.0,0.2,0.0,32344.0,16635.0,30.4,24.3,18.1,18.7,11.3,27.6,84.3,10.9,0.0,1.5,2.6,0.6,17.5,6132.0,81.4,15.7,2.8,0.1,5.2
172,Benewah,ID,47.21754179,-116.6586851,9050.0,4972.0,3878.0,977.0,0.78,0.19699999999999998,188.0,3.0,4568.0,4482.0,3.4,84.7,0.2,8.1,1.0,0.2,43472.0,23120.0,15.8,22.1,22.1,17.9,14.8,23.1,77.2,8.3,0.7,6.9,2.7,4.2,20.8,3450.0,69.6,20.7,9.5,0.2,9.6
173,Bennett,SD,43.19486375,-101.6665572,3440.0,1183.0,694.0,466.0,0.5870000000000001,0.39399999999999996,220.0,5.0,1567.0,1873.0,7.3,31.0,0.2,47.2,0.2,0.0,45725.0,15287.0,38.1,37.0,17.7,22.7,13.3,9.4,61.6,12.9,1.1,6.6,6.3,11.5,17.4,1212.0,48.1,39.2,11.8,0.9,13.5
174,Bennington,VT,43.03519828,-73.09048868,36054.0,7096.0,2473.0,4369.0,0.349,0.616,142.0,1.0,17689.0,18365.0,1.8,94.7,0.8,0.1,0.4,0.0,52251.0,31313.0,12.8,36.1,18.7,21.6,10.1,13.5,75.6,8.9,0.5,4.9,2.0,8.0,19.3,17605.0,77.6,10.8,11.4,0.2,4.4
175,Benson,ND,48.0683985,-99.35916363,6875.0,1961.0,1094.0,822.0,0.5579999999999999,0.419,557.0,10.0,3520.0,3355.0,0.9,41.3,0.0,55.7,0.1,0.0,44500.0,21658.0,33.3,36.5,20.1,18.3,13.7,11.3,73.9,9.1,0.6,5.4,1.5,9.5,18.0,2432.0,59.1,26.2,14.7,0.0,6.5
176,Bent,CO,37.95474293,-103.0720195,5806.0,2229.0,1468.0,723.0,0.659,0.324,18.0,0.0,3767.0,2039.0,32.0,60.8,6.1,0.5,0.4,0.0,32500.0,14028.0,24.5,31.0,27.2,18.5,13.9,9.3,77.7,12.0,0.0,4.0,2.7,3.5,20.1,1370.0,47.6,40.1,12.3,0.0,9.3
177,Benton,AR,36.33644656,-94.25680817,251823.0,119166.0,73605.0,41894.0,0.618,0.35200000000000004,8619.0,125.0,124632.0,127191.0,16.3,74.2,1.6,1.4,3.7,0.5,61271.0,30611.0,10.5,37.6,13.4,26.0,8.7,14.4,85.3,8.5,0.1,1.6,0.8,3.7,19.9,119813.0,86.0,8.2,5.7,0.1,3.1
178,Benton,IA,42.08011739,-92.06463573,25646.0,14627.0,9179.0,5156.0,0.628,0.35200000000000004,733.0,4.0,12786.0,12860.0,1.4,96.6,0.7,0.1,0.3,0.0,64061.0,32356.0,8.7,31.8,13.3,23.9,11.9,19.2,82.4,8.8,0.1,3.0,0.9,4.8,23.8,13230.0,80.9,11.1,7.9,0.1,3.6
179,Benton,IN,40.60626947,-87.31093999,8685.0,4115.0,3007.0,1009.0,0.731,0.245,123.0,1.0,4349.0,4336.0,5.1,92.8,0.9,0.0,0.2,0.0,49183.0,23652.0,14.9,25.2,12.9,24.5,14.1,23.3,78.0,11.7,0.6,3.0,0.8,6.0,26.3,4126.0,73.6,15.8,10.0,0.6,4.2
180,Benton,MN,45.69804958,-93.99514135,39360.0,22219.0,14382.0,7281.0,0.647,0.32799999999999996,1134.0,14.0,19652.0,19708.0,2.2,91.5,2.8,0.3,1.1,0.0,53574.0,27018.0,14.1,31.1,17.2,22.9,9.8,19.0,82.7,8.3,1.3,1.9,1.8,4.1,23.1,20468.0,82.7,11.6,5.4,0.3,4.2
181,Benton,MO,38.29503305,-93.28756116,18918.0,10478.0,8106.0,2179.0,0.774,0.20800000000000002,504.0,7.0,9308.0,9610.0,1.9,95.3,0.4,0.4,0.1,0.0,35097.0,20163.0,18.6,31.0,18.5,21.4,11.5,17.6,75.8,14.0,0.6,1.5,1.4,6.7,27.4,6177.0,73.2,16.0,10.8,0.0,9.7
182,Benton,MS,34.81681228,-89.18945516,8306.0,4257.0,2553.0,1661.0,0.6,0.39,376.0,11.0,4257.0,4049.0,2.5,60.2,36.6,0.0,0.0,0.0,40605.0,18599.0,20.2,24.4,12.1,20.9,11.7,30.9,88.2,6.9,0.0,0.5,2.3,2.1,30.5,2923.0,83.0,11.6,5.4,0.0,13.7
183,Benton,OR,44.49167306,-123.4316987,88249.0,52719.0,14853.0,35780.0,0.282,0.679,465.0,6.0,44598.0,43651.0,7.1,81.3,1.0,0.5,6.6,0.3,54682.0,30873.0,20.7,50.2,17.8,18.3,6.5,7.1,65.3,7.9,2.2,7.5,9.6,7.5,19.6,41703.0,66.2,27.6,6.1,0.1,6.7
184,Benton,TN,36.07110411,-88.06849355,16154.0,7250.0,5661.0,1526.0,0.7809999999999999,0.21,441.0,10.0,7794.0,8360.0,2.2,93.2,3.4,0.3,0.0,0.0,33702.0,21282.0,22.3,23.2,19.3,21.3,12.2,23.9,87.0,9.7,0.3,0.2,1.7,1.1,24.4,5721.0,72.5,20.2,7.3,0.0,9.1
185,Benton,WA,46.23946995,-119.51208340000001,190529.0,100997.0,59746.0,38081.0,0.5920000000000001,0.377,5385.0,135.0,95438.0,95091.0,20.8,71.6,1.4,0.6,2.5,0.1,63001.0,30511.0,13.4,39.4,16.3,21.2,11.3,11.8,81.2,10.7,1.0,1.7,1.1,4.2,21.8,85352.0,78.4,17.3,4.3,0.1,6.0
186,Benzie,MI,44.63899297,-86.01608482,17462.0,12259.0,6600.0,5480.0,0.5379999999999999,0.447,145.0,2.0,8694.0,8768.0,2.4,93.9,0.3,1.4,0.4,0.0,53185.0,26790.0,10.0,31.0,20.5,22.9,13.4,12.2,75.9,13.4,1.2,1.8,1.5,6.1,26.2,7679.0,78.1,14.8,6.9,0.2,6.5
187,Bergen,NJ,40.96010917,-74.07164325,937920.0,448647.0,182831.0,259358.0,0.408,0.578,25526.0,2063.0,454204.0,483716.0,18.9,57.8,5.3,0.1,16.2,0.0,91572.0,46601.0,7.2,47.9,13.5,24.3,6.3,8.0,68.7,7.4,14.9,2.8,1.4,4.7,32.3,473672.0,83.2,11.3,5.3,0.2,5.2
188,Berkeley,SC,33.20222596,-79.94654523,204632.0,104458.0,57397.0,45223.0,0.5489999999999999,0.433,6232.0,95.0,101773.0,102859.0,6.3,64.0,23.9,0.4,2.3,0.1,56697.0,27010.0,12.8,33.1,17.6,24.0,11.3,13.8,82.5,9.2,0.6,2.9,1.1,3.6,27.3,93092.0,77.2,18.1,4.6,0.1,6.4
189,Berkeley,WV,39.46704621,-78.02414609,111610.0,49146.0,32062.0,16075.0,0.652,0.327,1692.0,18.0,54961.0,56649.0,4.0,84.6,7.2,0.1,1.1,0.1,59480.0,27658.0,13.0,33.9,17.2,24.3,9.5,15.0,82.6,11.6,0.8,1.0,0.2,3.8,31.2,52254.0,74.2,21.8,3.7,0.2,8.3
190,Berks,PA,40.41570541,-75.92457766,415500.0,198260.0,105941.0,89530.0,0.534,0.452,9648.0,425.0,204283.0,211217.0,19.6,73.2,4.1,0.1,1.4,0.0,59580.0,29041.0,13.6,31.8,16.7,23.3,8.7,19.4,79.8,9.8,1.6,3.3,1.6,3.9,24.9,201177.0,85.7,9.1,5.1,0.1,7.3
192,Bernalillo,NM,35.05163625,-106.6703554,674855.0,315332.0,115674.0,192042.0,0.36700000000000005,0.609,11859.0,212.0,330743.0,344112.0,49.5,39.5,2.5,4.0,2.3,0.1,50386.0,28340.0,18.0,40.2,19.9,23.9,8.3,7.7,80.2,9.1,1.8,1.9,2.5,4.4,21.9,313658.0,74.3,19.8,5.7,0.2,6.7
193,Berrien,GA,31.27590016,-83.22529920000001,19014.0,7743.0,6419.0,1269.0,0.8290000000000001,0.16399999999999998,503.0,14.0,9297.0,9717.0,4.9,82.3,10.8,0.2,1.0,0.0,38297.0,18064.0,23.7,22.8,19.7,20.6,15.9,21.1,80.4,13.7,0.1,1.6,1.9,2.3,23.8,7062.0,77.3,17.7,4.8,0.3,9.4
194,Berrien,MI,41.95447397,-86.41313079999999,154948.0,82378.0,43518.0,37438.0,0.528,0.45399999999999996,2985.0,86.0,75835.0,79113.0,5.2,75.1,14.6,0.3,1.9,0.0,47132.0,27505.0,17.2,34.2,18.5,22.3,9.0,16.0,82.0,8.6,0.6,2.7,1.7,4.5,19.3,70439.0,84.9,9.0,5.9,0.2,7.3
195,Bertie,NC,36.0688473,-76.96545943,19913.0,9676.0,3778.0,5846.0,0.39,0.604,737.0,20.0,10057.0,9856.0,2.1,34.3,61.6,0.6,0.6,0.0,31287.0,18319.0,22.0,23.7,16.0,18.6,12.7,29.0,80.7,11.6,0.7,2.0,1.9,3.1,24.8,7307.0,74.0,20.5,5.3,0.2,12.7
196,Bexar,TX,29.44928723,-98.52019748,1892004.0,756021.0,303871.0,440823.0,0.402,0.583,66064.0,1414.0,932577.0,959427.0,59.8,28.4,7.0,0.2,2.6,0.1,53999.0,26158.0,16.4,34.8,19.6,26.0,9.7,10.0,79.3,10.9,2.6,1.7,1.4,4.2,25.0,867502.0,80.7,13.8,5.5,0.1,6.1
197,Bibb,AL,32.99642064,-87.12511459999999,22580.0,9573.0,7508.0,1982.0,0.784,0.207,878.0,15.0,12251.0,10329.0,2.4,74.6,22.0,0.4,0.0,0.0,43404.0,20911.0,15.2,24.4,17.6,19.7,15.9,22.4,86.4,9.5,0.7,0.3,1.7,1.5,30.0,8171.0,76.0,17.4,6.3,0.3,8.2
198,Bibb,GA,32.80904227,-83.70489165,153923.0,70802.0,26585.0,43468.0,0.375,0.614,6707.0,200.0,72312.0,81611.0,3.2,39.3,54.0,0.2,1.9,0.0,38183.0,23426.0,26.7,34.8,21.1,26.7,6.4,11.0,82.0,9.9,1.0,2.3,1.9,3.0,21.1,60590.0,79.8,15.9,4.1,0.1,10.4
199,Bienville,LA,32.34569994,-93.05398492,13806.0,7050.0,3891.0,3067.0,0.552,0.435,623.0,35.0,6692.0,7114.0,1.7,54.3,41.5,0.1,0.0,0.0,34077.0,22701.0,25.3,30.0,15.8,19.1,13.9,21.2,86.0,8.6,0.2,1.6,0.8,2.8,32.6,5020.0,68.9,23.4,6.8,0.9,7.4
200,Big Horn,MT,45.42335905,-107.492347,13290.0,4669.0,2185.0,2401.0,0.46799999999999997,0.514,1400.0,38.0,6566.0,6724.0,5.6,27.7,0.1,65.0,0.1,0.0,47276.0,17905.0,26.8,33.9,22.6,22.7,14.0,6.8,70.0,11.1,0.5,7.1,1.3,10.0,18.1,4789.0,46.9,45.5,7.1,0.5,15.9
201,Big Horn,WY,44.52405055,-107.9960365,11920.0,5752.0,4806.0,788.0,0.836,0.13699999999999998,263.0,7.0,6015.0,5905.0,8.8,88.2,0.6,0.9,0.4,0.1,51716.0,23724.0,13.0,29.5,18.5,19.2,18.4,14.4,74.8,9.8,0.0,7.2,2.2,6.0,18.8,5280.0,71.8,19.7,8.1,0.4,4.7
202,Big Stone,MN,45.42712824,-96.41403739,5039.0,2972.0,1862.0,1052.0,0.627,0.354,177.0,1.0,2489.0,2550.0,1.4,98.0,0.3,0.0,0.0,0.0,48299.0,29035.0,11.7,31.7,13.2,23.2,16.2,15.6,77.3,9.9,0.4,4.3,0.6,7.5,17.5,2388.0,70.7,17.0,11.9,0.3,2.8
203,Billings,ND,47.02366884,-103.3762965,983.0,635.0,541.0,72.0,0.852,0.113,34.0,0.0,566.0,417.0,4.1,94.4,0.9,0.6,0.0,0.0,91518.0,44683.0,10.3,34.9,13.5,17.5,16.3,17.9,65.6,7.2,2.1,9.7,1.9,13.6,27.6,498.0,67.9,18.7,12.7,0.8,3.9
204,Bingham,ID,43.21672879999999,-112.3978437,45369.0,20094.0,15295.0,4124.0,0.7609999999999999,0.205,1664.0,23.0,22732.0,22637.0,17.9,74.0,0.3,4.9,0.9,0.0,51307.0,20720.0,13.1,31.2,17.6,20.5,15.7,14.9,77.5,12.0,2.0,1.8,1.8,4.8,21.9,19417.0,75.0,17.8,6.8,0.4,5.2
205,Black Hawk,IA,42.4704581,-92.30524729,132960.0,66549.0,29623.0,35621.0,0.445,0.535,6448.0,103.0,65251.0,67709.0,4.2,82.2,8.8,0.2,2.1,0.2,50916.0,27669.0,15.9,31.8,18.4,24.3,7.4,18.2,82.1,8.5,0.6,4.1,1.6,3.2,15.7,68771.0,81.8,13.9,4.2,0.1,5.3
206,Blackford,IN,40.47388153,-85.32499702,12214.0,5354.0,3838.0,1376.0,0.7170000000000001,0.257,287.0,6.0,6047.0,6167.0,1.5,96.0,0.2,0.2,0.5,0.0,40622.0,22328.0,12.8,22.7,14.4,21.2,10.7,31.0,85.3,7.9,0.5,2.7,1.3,2.3,23.5,5251.0,83.7,10.9,5.2,0.2,6.8
207,Bladen,NC,34.61296243,-78.56180059,34130.0,17009.0,9623.0,7281.0,0.5660000000000001,0.428,1105.0,19.0,16241.0,17889.0,7.5,54.2,34.4,2.3,0.0,0.0,32396.0,20839.0,24.5,25.2,20.5,19.0,16.6,18.8,85.7,9.9,0.2,0.8,0.6,2.8,24.7,13263.0,74.5,19.3,6.0,0.2,7.9
208,Blaine,ID,43.4085812,-113.9752658,21583.0,13288.0,4031.0,8919.0,0.303,0.6709999999999999,916.0,7.0,11040.0,10543.0,21.0,76.5,0.3,0.0,1.0,0.0,58835.0,32736.0,14.8,31.3,28.5,20.2,12.8,7.3,76.1,7.2,1.4,3.6,2.4,9.3,19.2,11954.0,73.7,10.9,14.8,0.6,3.7
209,Blaine,MT,48.43175214,-108.9582723,6646.0,3121.0,1469.0,1589.0,0.47100000000000003,0.509,349.0,7.0,3316.0,3330.0,2.5,46.2,0.2,49.1,0.0,0.2,35506.0,17059.0,32.7,37.2,15.2,20.2,18.4,9.1,68.4,13.7,0.9,7.6,0.8,8.6,15.5,2494.0,53.1,37.4,8.1,1.4,16.8
210,Blaine,NE,41.91311716,-99.97677845,502.0,317.0,280.0,35.0,0.883,0.11,4.0,0.0,256.0,246.0,0.0,98.0,0.0,0.0,0.6,1.4,52000.0,28503.0,9.8,44.7,9.6,11.7,22.7,11.3,55.6,10.1,0.4,7.6,2.5,23.8,20.6,282.0,65.2,16.0,18.8,0.0,1.1
211,Blaine,OK,35.87518314,-98.43307003,9680.0,3901.0,3136.0,688.0,0.804,0.17600000000000002,225.0,1.0,5070.0,4610.0,9.8,74.0,3.9,6.9,0.1,0.0,46362.0,22823.0,15.0,35.0,15.9,21.8,11.8,15.5,87.4,4.7,0.1,1.0,0.9,5.8,17.2,3470.0,65.6,21.9,11.1,1.4,3.6
212,Blair,PA,40.47961444,-78.34917412,124736.0,62784.0,44714.0,17425.0,0.7120000000000001,0.278,1456.0,32.0,61106.0,63630.0,1.2,94.8,1.5,0.0,0.7,0.0,45664.0,25531.0,15.2,31.2,18.6,25.3,8.8,16.0,82.5,8.8,0.8,3.7,1.2,2.9,20.1,56657.0,83.1,11.8,4.9,0.2,5.2
213,Blanco,TX,30.26640707,-98.3999852,11089.0,7419.0,5429.0,1905.0,0.732,0.257,163.0,6.0,5576.0,5513.0,19.1,77.6,0.0,0.0,0.6,0.0,58500.0,31249.0,10.8,33.6,18.2,21.0,16.7,10.4,77.9,8.6,0.0,3.1,1.3,9.2,27.8,5106.0,66.2,16.9,16.4,0.4,5.7
214,Bland,VA,37.13128068,-81.13599391,6524.0,3475.0,2903.0,532.0,0.835,0.153,79.0,5.0,3617.0,2907.0,0.5,94.3,4.8,0.0,0.0,0.0,46927.0,23505.0,8.3,23.7,21.4,29.8,5.4,19.8,88.9,5.2,0.6,0.8,1.8,2.8,32.8,2578.0,76.6,18.8,4.6,0.0,6.7
215,Bleckley,GA,32.43829035,-83.33035166,12779.0,5706.0,4328.0,1311.0,0.758,0.23,515.0,27.0,5909.0,6870.0,2.7,68.8,27.7,0.1,0.2,0.0,40688.0,20667.0,23.0,30.1,20.3,22.9,12.9,13.8,84.6,10.5,0.1,1.2,0.2,3.4,24.2,4227.0,65.5,29.4,5.1,0.0,7.7
216,Bledsoe,TN,35.59942968,-85.20611967,14413.0,5758.0,4725.0,971.0,0.821,0.16899999999999998,1047.0,4.0,8385.0,6028.0,2.1,89.2,4.0,1.1,0.3,0.0,40450.0,21402.0,20.7,25.5,15.1,18.8,19.0,21.6,76.6,13.8,0.6,3.9,1.0,4.1,30.4,5270.0,70.1,19.5,10.4,0.0,8.4
217,Blount,AL,33.98210918,-86.56790593,57667.0,27459.0,24595.0,2627.0,0.8959999999999999,0.096,2095.0,25.0,28490.0,29177.0,9.0,87.4,1.5,0.3,0.1,0.0,47412.0,22021.0,15.6,28.5,12.9,23.3,15.8,19.5,86.8,10.2,0.1,0.4,0.4,2.1,35.0,21380.0,83.9,11.9,4.0,0.1,4.9
218,Blount,TN,35.68938198,-83.92847788,127135.0,66306.0,47195.0,17834.0,0.7120000000000001,0.26899999999999996,3602.0,41.0,61640.0,65495.0,3.1,91.4,2.5,0.3,0.7,0.1,51172.0,28334.0,13.0,32.8,15.9,26.3,10.5,14.5,85.6,8.5,0.2,0.8,1.0,4.0,24.8,58333.0,81.7,11.5,6.6,0.2,5.9
219,Blue Earth,MN,44.03554215,-94.06699781,65767.0,35969.0,16731.0,18330.0,0.465,0.51,2207.0,7.0,33054.0,32713.0,3.2,88.9,3.3,0.3,2.1,0.0,53752.0,28283.0,18.1,33.7,19.9,23.7,8.0,14.7,80.9,7.6,1.5,4.0,1.1,5.0,17.3,37072.0,81.0,13.5,5.4,0.1,4.5
220,Boise,ID,43.98829931,-115.7309284,6968.0,4840.0,3495.0,1214.0,0.722,0.251,87.0,2.0,3678.0,3290.0,4.1,91.8,0.2,1.0,0.7,0.0,49964.0,29648.0,11.3,40.3,13.9,24.4,10.4,11.1,68.8,12.8,0.4,5.5,2.6,9.9,38.1,2749.0,65.8,22.0,11.8,0.3,6.0
221,Bolivar,MS,33.79696941,-90.87372121,33121.0,11631.0,4260.0,7203.0,0.366,0.619,2072.0,79.0,15613.0,17508.0,2.1,32.4,64.2,0.3,0.9,0.0,28468.0,16984.0,37.4,31.1,22.3,22.7,10.0,13.9,82.7,11.2,0.2,2.2,1.0,2.6,18.0,11228.0,66.6,27.0,6.2,0.1,12.6
222,Bollinger,MO,37.32449052,-90.02725304,12347.0,5981.0,5162.0,749.0,0.863,0.125,553.0,3.0,6180.0,6167.0,1.2,96.5,0.4,0.7,0.4,0.0,40791.0,20687.0,19.9,24.4,17.5,19.0,16.8,22.3,71.2,18.2,1.0,4.5,1.1,4.1,32.6,4995.0,80.3,9.9,9.7,0.0,5.1
223,Bon Homme,SD,42.98914167,-97.88592746,6972.0,3001.0,2235.0,721.0,0.745,0.24,1016.0,1.0,4057.0,2915.0,3.0,87.4,1.3,5.0,1.4,0.0,52923.0,24858.0,10.3,40.5,18.2,14.9,9.1,17.2,71.9,10.6,0.0,5.1,1.1,11.2,19.6,2897.0,63.7,18.6,17.0,0.7,1.2
224,Bond,IL,38.88829622,-89.43534887,17034.0,8109.0,5612.0,2275.0,0.6920000000000001,0.281,544.0,9.0,8767.0,8267.0,3.5,87.8,6.1,0.2,1.2,0.0,54393.0,24473.0,15.7,24.5,18.5,26.0,11.6,19.3,77.0,9.9,0.4,7.9,0.3,4.5,24.5,7483.0,80.8,12.2,6.7,0.2,5.1
225,Bonner,ID,48.29996017,-116.6017932,41855.0,27352.0,18369.0,8310.0,0.672,0.304,527.0,1.0,20980.0,20875.0,2.9,93.6,0.1,0.6,0.7,0.1,45607.0,25909.0,14.0,26.6,19.1,22.0,14.2,18.1,75.6,9.6,0.5,1.8,2.3,10.2,25.6,17199.0,77.3,11.5,11.2,0.0,4.4
226,Bonneville,ID,43.38713372,-111.6161537,110404.0,53995.0,37805.0,14254.0,0.7,0.264,4764.0,38.0,55082.0,55322.0,12.7,83.6,0.5,0.3,0.8,0.2,54150.0,25706.0,11.9,35.8,16.8,24.0,10.3,13.1,78.4,10.9,2.9,1.6,1.6,4.5,19.2,48734.0,78.0,15.7,6.1,0.2,3.8
227,Boone,AR,36.3084504,-93.09374925,37212.0,17103.0,13644.0,3061.0,0.7979999999999999,0.179,1099.0,36.0,18198.0,19014.0,2.3,94.2,0.4,1.1,0.5,0.1,40727.0,22288.0,15.8,29.8,19.5,24.8,9.7,16.2,82.7,11.1,0.1,1.0,1.3,3.8,19.4,15773.0,78.4,13.1,8.2,0.3,6.1
228,Boone,IA,42.03657094,-93.9313999,26381.0,15306.0,8695.0,6303.0,0.568,0.41200000000000003,797.0,9.0,13280.0,13101.0,2.5,94.6,0.4,0.1,0.4,0.7,57906.0,30190.0,9.4,31.5,17.3,24.3,9.9,17.0,82.2,10.1,0.2,3.2,1.0,3.2,21.4,13803.0,75.8,19.1,5.0,0.1,4.4
229,Boone,IL,42.32359279,-88.82345779,53638.0,24672.0,13762.0,10372.0,0.5579999999999999,0.42,2171.0,26.0,26755.0,26883.0,21.0,74.0,2.1,0.3,1.2,0.0,62701.0,29029.0,10.6,29.0,15.5,23.1,11.6,20.8,84.2,9.0,0.3,0.7,0.5,5.3,29.0,25060.0,83.7,9.4,6.9,0.0,8.1
230,Boone,IN,40.0509304,-86.46841646,63013.0,38500.0,22351.0,15244.0,0.581,0.396,1421.0,51.0,31211.0,31802.0,2.7,91.6,1.6,0.2,2.6,0.0,75591.0,42844.0,6.1,48.2,12.4,20.8,7.1,11.6,86.0,6.3,0.1,0.9,1.3,5.4,24.9,32690.0,85.1,8.9,6.0,0.1,3.3
231,Boone,KY,38.97065142,-84.72615357,127682.0,66953.0,44811.0,20897.0,0.669,0.312,2338.0,25.0,63122.0,64560.0,4.1,88.4,3.0,0.1,2.3,0.0,72731.0,33553.0,7.6,39.4,13.2,27.8,6.7,12.8,84.8,8.1,0.8,0.9,0.9,4.4,24.0,64527.0,85.6,10.5,3.8,0.1,4.9
232,Boone,MO,38.99186229,-92.30723575,174589.0,91004.0,38596.0,49999.0,0.424,0.5489999999999999,6443.0,15.0,84812.0,89777.0,3.3,79.5,8.5,0.1,4.2,0.1,52005.0,28495.0,18.7,44.8,17.9,23.1,6.3,7.9,77.7,11.0,1.1,3.9,2.1,4.2,17.9,92859.0,74.0,21.1,4.7,0.2,4.4
233,Boone,NE,41.70759415,-98.06737183,5357.0,3217.0,2653.0,499.0,0.825,0.155,170.0,0.0,2691.0,2666.0,2.0,96.7,0.5,0.0,0.1,0.1,53854.0,28861.0,7.3,34.3,17.7,17.6,15.1,15.4,75.8,6.9,0.0,3.8,0.7,12.9,15.5,2769.0,70.4,12.5,17.0,0.2,1.7
234,Boone,WV,38.01974191,-81.69888019,23236.0,9012.0,6816.0,2041.0,0.7559999999999999,0.226,408.0,3.0,11530.0,11706.0,0.6,97.8,0.8,0.0,0.2,0.0,37955.0,20992.0,24.4,24.4,22.3,22.0,18.5,12.8,86.8,7.1,0.0,2.6,1.2,2.3,32.9,7030.0,79.5,16.8,3.6,0.0,10.6
235,Borden,TX,32.74363984,-101.43165090000001,602.0,412.0,395.0,16.0,0.9590000000000001,0.039,2.0,0.0,309.0,293.0,7.6,92.4,0.0,0.0,0.0,0.0,77708.0,38923.0,2.8,47.8,8.6,20.4,17.6,5.5,74.7,10.7,0.0,11.1,0.0,3.6,28.1,255.0,57.3,23.5,19.2,0.0,1.5
236,Bosque,TX,31.89978581,-97.63613524,17955.0,9094.0,7446.0,1552.0,0.8190000000000001,0.171,418.0,11.0,8831.0,9124.0,17.6,78.7,1.4,0.3,0.3,0.0,48677.0,25763.0,15.6,29.3,16.6,21.7,16.0,16.4,79.2,10.0,0.1,4.5,1.2,5.0,29.6,7475.0,76.6,11.5,11.3,0.6,5.2
237,Bossier,LA,32.67932307,-93.60460152,125698.0,54655.0,38074.0,15662.0,0.6970000000000001,0.287,4381.0,122.0,62214.0,63484.0,6.5,67.6,21.6,0.5,1.5,0.1,52145.0,27235.0,16.4,37.0,17.5,24.1,11.4,9.9,86.9,7.0,0.3,1.4,1.4,3.0,21.7,54751.0,76.0,18.8,5.0,0.1,5.8
238,Botetourt,VA,37.55531756,-79.80982182,33149.0,21071.0,15102.0,5705.0,0.7170000000000001,0.271,479.0,12.0,16421.0,16728.0,1.6,93.0,3.0,0.3,0.9,0.0,64733.0,34733.0,7.7,38.4,14.2,22.4,10.5,14.5,89.0,6.0,0.0,0.9,0.4,3.8,28.3,16102.0,80.4,13.9,5.6,0.0,3.8
239,Bottineau,ND,48.79106111,-100.8378166,6651.0,3471.0,2575.0,821.0,0.742,0.237,345.0,17.0,3478.0,3173.0,2.2,92.0,0.8,2.4,0.3,0.0,58767.0,35698.0,8.6,36.8,20.0,18.5,13.8,10.8,76.0,9.2,0.0,6.3,0.7,7.9,18.7,3283.0,65.5,19.0,14.9,0.6,3.3
240,Boulder,CO,40.09313619,-105.3546767,316782.0,193656.0,39289.0,150247.0,0.203,0.7759999999999999,5988.0,88.0,159112.0,157670.0,13.8,78.2,0.8,0.2,4.5,0.1,75669.0,42119.0,13.1,53.2,15.6,19.4,5.0,6.7,64.7,7.9,4.9,5.1,5.6,11.8,22.7,170940.0,78.9,13.1,7.8,0.2,5.2
241,Boundary,ID,48.76684761,-116.4630179,11323.0,6313.0,4937.0,1220.0,0.782,0.193,203.0,1.0,5655.0,5668.0,4.6,90.9,0.2,1.3,0.5,0.4,39512.0,24606.0,18.3,26.0,22.4,20.0,14.9,16.7,76.7,10.9,0.0,3.6,0.7,8.0,23.7,4044.0,71.2,15.0,13.5,0.4,3.8
242,Bourbon,KS,37.85508555,-94.84865997,14757.0,6550.0,4910.0,1505.0,0.75,0.23,306.0,3.0,7315.0,7442.0,2.5,90.5,3.2,0.7,0.9,0.0,39379.0,20707.0,17.6,29.5,20.1,22.0,10.6,17.7,78.9,9.9,0.1,4.0,1.4,5.6,17.1,6414.0,78.2,15.4,6.3,0.1,2.2
243,Bourbon,KY,38.2054607,-84.21827874,20017.0,9643.0,6190.0,3296.0,0.642,0.342,335.0,1.0,9706.0,10311.0,6.7,85.2,7.2,0.0,0.3,0.0,47886.0,25994.0,16.6,29.4,20.2,22.4,12.3,15.7,79.5,9.6,0.5,2.3,2.1,6.0,22.7,9357.0,77.4,14.9,7.3,0.4,6.9
244,Bowie,TX,33.44626922,-94.41834132,93635.0,38194.0,27053.0,10692.0,0.708,0.28,2040.0,77.0,47173.0,46462.0,7.4,64.5,23.9,0.8,1.0,0.0,46283.0,24761.0,17.9,31.9,18.8,24.0,11.2,14.2,88.6,5.9,0.3,0.9,1.8,2.5,17.9,36668.0,77.7,18.1,4.2,0.0,7.3
245,Bowman,ND,46.11285362,-103.5203343,3226.0,1657.0,1395.0,228.0,0.8420000000000001,0.138,148.0,2.0,1544.0,1682.0,5.1,92.6,0.1,1.2,0.0,0.0,65435.0,36318.0,8.5,36.7,18.8,14.6,17.3,12.5,77.4,7.6,0.0,5.3,1.6,8.1,14.3,1796.0,72.5,11.9,15.3,0.3,1.6
246,Box Butte,NE,42.22079243,-103.08788340000001,11200.0,5181.0,4002.0,1051.0,0.772,0.203,280.0,1.0,5671.0,5529.0,12.1,82.3,0.6,2.8,0.3,0.3,56328.0,28483.0,10.9,30.0,12.1,19.4,15.3,23.4,83.7,8.5,0.1,2.3,1.8,3.7,10.8,5509.0,76.2,14.1,9.6,0.1,5.1
247,Box Elder,UT,41.52106798,-113.08328159999999,52182.0,26312.0,20984.0,4362.0,0.7979999999999999,0.166,0.0,0.0,26423.0,25759.0,9.1,87.3,0.5,1.0,0.8,0.1,58835.0,22808.0,10.2,31.5,14.4,21.0,10.2,22.9,77.7,14.8,0.7,1.5,1.3,4.0,23.5,22319.0,79.4,15.3,5.0,0.3,5.5
248,Boyd,KY,38.36176608,-82.68652187,48486.0,21741.0,14295.0,7083.0,0.6579999999999999,0.326,743.0,22.0,24180.0,24306.0,1.7,93.3,2.4,0.1,0.3,0.0,45543.0,26420.0,19.3,36.3,17.9,23.7,8.9,13.3,82.8,10.9,0.3,3.4,1.1,1.5,21.6,18235.0,79.5,15.4,4.8,0.3,9.3
249,Boyd,NE,42.899727399999996,-98.76486568,2049.0,1153.0,1010.0,135.0,0.8759999999999999,0.11699999999999999,78.0,0.0,1038.0,1011.0,0.7,95.0,0.5,1.5,0.9,0.0,48750.0,26413.0,9.8,43.4,12.0,15.2,17.5,11.9,65.1,5.4,0.0,8.0,1.1,20.5,17.2,1020.0,54.8,17.5,26.2,1.5,1.6
250,Boyle,KY,37.62680923,-84.8633779,29773.0,14467.0,8872.0,5298.0,0.613,0.366,491.0,0.0,14883.0,14890.0,3.2,85.9,7.1,0.2,0.8,0.0,43076.0,23822.0,15.5,33.0,18.1,20.3,7.5,21.0,80.4,10.6,0.1,3.8,0.9,4.1,20.5,12386.0,79.7,14.6,5.6,0.2,4.9
251,Bracken,KY,38.69158994,-84.08532444,8330.0,4244.0,3397.0,799.0,0.8,0.188,75.0,1.0,4186.0,4144.0,1.6,96.4,0.0,0.2,0.5,0.0,40458.0,22433.0,21.4,27.0,16.3,20.2,16.0,20.4,82.1,10.9,0.1,2.4,0.5,4.0,35.6,3498.0,76.4,16.4,7.1,0.1,7.6
252,Bradford,FL,29.95079741,-82.16611613,26775.0,13650.0,10334.0,3160.0,0.757,0.23199999999999998,1241.0,15.0,14754.0,12021.0,3.8,74.5,19.1,0.3,0.6,0.0,46106.0,19656.0,18.8,31.7,22.8,23.7,11.0,10.8,87.5,7.1,0.1,2.1,1.8,1.4,31.1,9118.0,71.3,24.9,3.6,0.2,7.6
253,Bradford,PA,41.78869215,-76.51570822,61546.0,30143.0,21586.0,8044.0,0.716,0.267,895.0,15.0,30348.0,31198.0,1.4,96.1,0.6,0.1,0.6,0.0,50900.0,26937.0,12.2,28.4,16.2,19.8,13.6,21.9,80.9,8.8,0.2,4.7,1.0,4.4,22.5,26598.0,82.9,9.8,7.0,0.3,5.6
254,Bradley,AR,33.46755808,-92.15980837,10994.0,3644.0,2332.0,1208.0,0.64,0.332,373.0,8.0,5262.0,5732.0,14.8,55.9,29.1,0.0,0.0,0.0,36310.0,21575.0,26.4,25.9,16.6,13.8,18.4,25.3,82.2,9.6,0.0,1.0,2.8,4.5,22.0,4112.0,74.0,19.0,7.0,0.0,9.4
255,Bradley,TN,35.15739424,-84.857186,103666.0,45968.0,35194.0,9849.0,0.7659999999999999,0.214,3754.0,24.0,50468.0,53198.0,5.8,86.5,4.9,0.1,1.1,0.0,46381.0,25144.0,18.0,31.9,16.9,22.4,10.1,18.8,83.7,8.8,0.3,2.2,1.2,3.8,21.1,46406.0,82.5,10.5,6.7,0.3,7.2
256,Branch,MI,41.91600556,-85.05929476,43543.0,20541.0,14067.0,6161.0,0.685,0.3,973.0,11.0,22517.0,21026.0,4.5,90.9,2.3,0.3,0.5,0.0,48192.0,22977.0,15.9,22.8,18.4,22.1,10.3,26.5,83.7,8.9,0.4,1.3,1.4,4.3,22.5,18861.0,82.7,10.5,6.6,0.2,4.6
257,Brantley,GA,31.19576557,-81.97743999,18411.0,7746.0,6991.0,699.0,0.903,0.09,473.0,13.0,9070.0,9341.0,2.1,92.6,3.1,0.1,0.7,0.1,36812.0,18220.0,21.8,24.4,18.0,20.8,20.7,16.1,84.2,8.9,1.4,1.2,0.7,3.7,30.8,6430.0,75.0,18.0,6.8,0.2,7.8
258,Braxton,WV,38.70036159,-80.72011184,14345.0,5664.0,4120.0,1457.0,0.727,0.257,73.0,0.0,7172.0,7173.0,1.0,97.1,0.3,0.1,0.0,0.2,41266.0,20633.0,22.1,28.5,18.1,26.2,13.1,14.1,79.6,8.5,0.1,1.6,5.5,4.8,30.2,5320.0,77.7,16.9,4.7,0.7,15.3
259,Brazoria,TX,29.18757369,-95.44563172,345995.0,154037.0,89939.0,61780.0,0.584,0.401,12501.0,185.0,175156.0,170839.0,29.7,49.1,12.9,0.3,6.2,0.0,76426.0,32343.0,9.9,41.7,14.0,20.2,11.2,12.8,86.3,8.9,0.2,0.8,0.9,2.8,29.8,162270.0,80.5,14.6,4.9,0.1,4.9
260,Brazos,TX,30.663644800000004,-96.30205577,214231.0,84753.0,47456.0,35242.0,0.56,0.41600000000000004,7782.0,75.0,108478.0,105753.0,25.1,56.7,10.2,0.1,6.0,0.0,43907.0,25337.0,26.0,41.1,18.0,22.9,8.7,9.3,77.7,11.3,2.4,2.5,2.7,3.4,17.0,103649.0,69.5,24.8,5.6,0.1,4.7
261,Breathitt,KY,37.52333168,-83.31959161,13276.0,5667.0,4265.0,1301.0,0.753,0.23,153.0,1.0,6675.0,6601.0,0.9,97.0,1.0,0.2,0.2,0.0,25861.0,16875.0,36.0,29.9,23.9,23.1,11.1,12.0,79.3,11.3,0.6,3.0,4.7,1.0,27.7,4012.0,65.7,26.0,8.1,0.2,11.9
262,Breckinridge,KY,37.77377239,-86.42885017,19991.0,10197.0,7701.0,2350.0,0.755,0.23,219.0,2.0,10028.0,9963.0,1.3,94.7,1.7,0.1,0.4,0.0,44057.0,20735.0,17.7,27.1,15.8,18.2,15.5,23.5,75.4,15.9,1.1,2.0,1.2,4.4,31.6,7757.0,76.6,15.1,8.2,0.1,9.8
263,Bremer,IA,42.77461496,-92.31795937,24741.0,14534.0,8287.0,5954.0,0.57,0.41,790.0,9.0,12195.0,12546.0,1.4,95.3,0.9,0.2,1.1,0.0,65440.0,32105.0,7.7,37.1,15.4,22.8,9.1,15.5,79.2,7.2,0.4,7.1,0.6,5.5,20.2,12931.0,80.8,12.2,7.0,0.0,3.6
264,Brevard,FL,28.29409504,-80.73091022,568183.0,360666.0,207857.0,148479.0,0.5760000000000001,0.41200000000000003,11780.0,375.0,277666.0,290517.0,9.7,75.3,9.8,0.3,2.4,0.1,51536.0,29405.0,13.4,38.4,19.1,24.7,8.5,9.4,81.6,8.0,0.6,1.1,2.7,6.0,24.5,239195.0,81.6,13.1,5.2,0.2,7.6
265,Brewster,TX,29.81008251,-103.25203259999999,9220.0,4805.0,2451.0,2251.0,0.51,0.46799999999999997,256.0,5.0,4464.0,4756.0,44.2,51.7,0.1,1.7,1.1,0.0,38906.0,26073.0,10.9,35.8,26.3,18.0,11.3,8.6,71.3,19.3,0.0,2.7,1.9,4.8,13.8,4151.0,57.2,33.7,7.4,1.7,7.1
266,Briscoe,TX,34.53026962,-101.2084947,1591.0,724.0,639.0,77.0,0.883,0.106,25.0,1.0,796.0,795.0,32.2,60.6,1.7,0.0,0.0,1.0,42500.0,23199.0,13.9,31.4,15.1,23.6,19.8,10.2,79.8,5.2,0.0,2.4,1.6,11.0,20.9,729.0,64.2,20.2,14.3,1.4,6.2
268,Bristol,RI,41.71018079,-71.28652315,49028.0,11557.0,4589.0,6779.0,0.397,0.5870000000000001,558.0,19.0,23625.0,25403.0,2.7,92.7,1.3,0.0,2.0,0.0,74630.0,42360.0,7.0,47.2,18.3,20.9,5.5,8.1,81.2,6.5,1.7,4.0,1.4,5.3,25.9,25027.0,81.0,11.9,7.0,0.2,4.2
270,Broadwater,MT,46.33277565,-111.49558130000001,5755.0,4056.0,3139.0,830.0,0.774,0.205,92.0,0.0,2896.0,2859.0,2.6,94.4,0.1,1.5,0.0,0.0,55295.0,32268.0,7.8,36.4,17.6,15.4,18.7,11.8,74.3,10.7,0.0,5.4,1.3,8.2,26.5,2621.0,62.6,23.5,13.2,0.8,4.1
271,Bronx,NY,40.85209301,-73.86282755,1455846.0,329638.0,55849.0,271835.0,0.16899999999999998,0.825,55912.0,4996.0,685636.0,770210.0,55.7,9.5,29.4,0.2,3.6,0.0,36593.0,19721.0,29.7,25.0,33.4,23.5,7.1,11.1,23.0,4.4,60.2,7.6,1.8,3.1,44.2,593858.0,80.0,14.6,5.3,0.1,11.6
272,Brooke,WV,40.27367263,-80.57915332,23067.0,10656.0,7545.0,2947.0,0.708,0.27699999999999997,249.0,4.0,11287.0,11780.0,0.9,95.8,1.7,0.0,0.4,0.2,48835.0,25630.0,13.0,30.9,22.4,21.2,12.5,13.0,85.8,6.0,0.3,4.7,0.5,2.7,26.1,10404.0,79.7,15.8,4.5,0.0,3.5
273,Brookings,SD,44.36974375,-96.79079945,33697.0,14567.0,8000.0,6110.0,0.5489999999999999,0.419,1545.0,6.0,17153.0,16544.0,2.6,91.0,1.4,1.1,2.9,0.0,53473.0,27197.0,15.9,36.6,17.4,22.2,10.1,13.6,76.9,9.3,0.4,5.8,2.0,5.5,14.9,19080.0,74.6,19.6,5.6,0.3,3.3
274,Brooks,GA,30.83922642,-83.58303423,15629.0,7100.0,4260.0,2790.0,0.6,0.39299999999999996,553.0,26.0,7531.0,8098.0,5.6,56.8,33.6,0.0,0.8,0.0,34890.0,20964.0,23.6,27.1,16.6,23.5,16.8,16.1,82.1,9.7,0.6,0.7,2.3,4.7,24.2,5865.0,75.2,18.3,6.4,0.1,13.6
275,Brooks,TX,27.03103197,-98.21808402,7251.0,2484.0,998.0,1470.0,0.402,0.5920000000000001,365.0,23.0,3750.0,3501.0,94.1,5.8,0.1,0.0,0.0,0.0,24794.0,13549.0,41.5,25.1,28.8,22.1,12.0,12.0,84.7,10.2,0.0,3.2,0.0,1.8,21.6,2489.0,63.6,27.3,9.1,0.0,13.8
276,Broome,NY,42.15903158,-75.81326086,196124.0,72376.0,38351.0,32275.0,0.53,0.446,3738.0,98.0,96409.0,99715.0,4.0,84.0,5.1,0.2,4.2,0.0,49064.0,26790.0,17.1,37.7,19.5,24.5,6.9,11.4,80.4,8.4,3.1,3.9,1.1,3.1,19.7,87365.0,75.3,19.8,4.9,0.0,7.2
277,Broomfield,CO,39.95998787,-105.0566324,64283.0,46297.0,16188.0,28871.0,0.35,0.624,1091.0,42.0,31920.0,32363.0,12.1,77.6,1.0,0.3,6.4,0.0,85639.0,43736.0,5.2,53.3,12.0,22.0,5.9,6.8,77.9,6.4,3.6,1.1,1.8,9.3,27.9,34972.0,80.3,13.6,6.0,0.1,4.0
278,Broward,FL,26.15184651,-80.48725556,1890416.0,959418.0,333346.0,618597.0,0.34700000000000003,0.645,86961.0,1526.0,920265.0,970151.0,28.4,38.2,27.4,0.2,3.5,0.0,54895.0,30109.0,14.0,35.6,19.9,27.5,8.4,8.6,80.0,9.0,2.8,1.2,2.1,4.9,28.2,930561.0,83.1,10.6,6.2,0.1,7.6
279,Brown,IL,39.96209138,-90.75068024,6791.0,2523.0,1930.0,485.0,0.765,0.192,127.0,0.0,4360.0,2431.0,3.6,73.6,21.3,0.0,0.6,0.0,56289.0,21906.0,11.6,27.4,17.0,28.1,7.9,19.6,84.3,5.5,0.3,1.6,0.6,7.7,16.6,2418.0,71.0,17.7,9.8,1.5,4.7
280,Brown,IN,39.19605589,-86.22868909,15007.0,8886.0,5725.0,2996.0,0.644,0.337,160.0,3.0,7439.0,7568.0,1.6,95.9,0.5,0.0,0.7,0.0,59292.0,31365.0,10.6,33.3,15.2,24.5,11.5,15.4,85.6,8.4,0.2,1.1,0.2,4.5,33.3,6754.0,80.8,8.8,9.9,0.5,5.9
281,Brown,KS,39.82652589,-95.56421698,9736.0,4396.0,3206.0,1088.0,0.7290000000000001,0.247,249.0,5.0,4680.0,5056.0,4.2,83.4,0.9,7.7,0.6,0.1,46964.0,24319.0,13.2,30.4,21.6,20.3,7.9,19.8,80.8,7.9,0.1,3.7,0.4,7.1,18.2,4589.0,72.9,15.5,11.5,0.2,3.4
282,Brown,MN,44.24205652,-94.72562874,25243.0,14630.0,9550.0,4750.0,0.653,0.325,384.0,3.0,12550.0,12693.0,4.1,93.9,0.3,0.1,0.7,0.1,55764.0,29696.0,8.1,30.1,17.2,21.2,11.4,20.0,79.5,6.8,0.5,5.0,1.2,7.0,15.1,13588.0,82.1,9.4,8.4,0.2,2.3
283,Brown,NE,42.43018907,-99.92904055,3058.0,1676.0,1468.0,190.0,0.8759999999999999,0.113,86.0,0.0,1468.0,1590.0,1.2,96.5,0.0,0.2,0.4,0.0,42773.0,29664.0,16.0,40.2,19.2,18.7,12.0,9.9,74.5,6.7,0.0,8.5,1.8,8.4,14.5,1584.0,66.1,15.8,17.9,0.2,0.6
284,Brown,OH,38.93416837,-83.86788395,43799.0,20586.0,16032.0,4326.0,0.779,0.21,485.0,3.0,21693.0,22106.0,0.9,96.6,0.8,0.1,0.3,0.0,49188.0,24525.0,17.8,25.6,20.7,21.8,12.1,19.9,83.9,8.2,0.1,1.7,0.9,5.3,36.5,19122.0,79.6,12.4,7.8,0.3,6.5
285,Brown,SD,45.58994323,-98.35165355,38637.0,17547.0,10580.0,6538.0,0.603,0.373,2220.0,6.0,18909.0,19728.0,2.5,88.6,1.6,3.4,2.6,0.0,53807.0,31493.0,11.0,33.2,15.9,24.0,10.2,16.6,83.2,8.3,0.2,2.4,1.9,3.9,12.9,20738.0,81.1,11.7,7.0,0.3,1.8
286,Brown,TX,31.77430356,-98.99907113,37787.0,15940.0,13681.0,2103.0,0.858,0.132,701.0,28.0,18741.0,19046.0,21.5,72.7,3.6,0.2,0.6,0.0,43062.0,24040.0,16.4,33.5,17.7,22.0,10.8,16.1,86.3,8.9,0.3,1.5,0.6,2.3,17.3,15238.0,76.9,15.1,8.0,0.0,4.3
287,Brown,WI,44.452655299999996,-88.00411844,258004.0,144011.0,75865.0,65509.0,0.527,0.455,16210.0,103.0,128020.0,129984.0,8.3,81.6,2.2,2.2,3.1,0.0,56775.0,29874.0,11.3,34.3,16.1,24.9,8.3,16.4,83.4,7.8,0.7,2.3,1.7,4.0,19.1,134015.0,85.5,10.1,4.3,0.1,4.4
288,Brule,SD,43.71756379,-99.08118954,5280.0,2490.0,1750.0,673.0,0.703,0.27,317.0,2.0,2626.0,2654.0,2.5,84.8,0.0,9.8,0.3,0.0,50870.0,26074.0,14.6,37.9,20.3,20.5,12.4,8.8,74.0,7.7,1.4,2.9,5.9,8.2,13.4,2691.0,65.9,15.0,15.2,3.9,2.0
289,Brunswick,NC,34.070565,-78.22814204,122586.0,89183.0,55373.0,32984.0,0.621,0.37,2250.0,49.0,59412.0,63174.0,4.7,81.6,10.5,0.3,0.6,0.1,51164.0,29707.0,14.1,29.0,21.5,25.3,13.4,10.8,79.2,11.1,0.4,1.3,1.3,6.7,24.2,48982.0,77.9,13.4,8.5,0.2,7.8
290,Brunswick,VA,36.76366949,-77.8593436,16435.0,7948.0,3357.0,4552.0,0.42200000000000004,0.573,424.0,5.0,8557.0,7878.0,2.1,41.1,54.1,0.2,0.5,0.0,40871.0,20278.0,20.9,26.3,22.2,22.9,13.6,15.0,84.3,8.5,0.2,1.8,2.9,2.3,29.2,6258.0,68.2,24.9,6.8,0.1,7.8
291,Bryan,GA,32.00979311,-81.44002948,34883.0,21340.0,14244.0,6739.0,0.667,0.316,1313.0,16.0,17313.0,17570.0,6.6,74.3,14.6,0.5,1.5,0.0,68589.0,29880.0,14.1,37.6,17.0,23.6,11.2,10.6,85.3,8.0,0.0,1.5,2.6,2.6,30.0,15250.0,75.3,18.3,6.3,0.1,7.9
292,Bryan,OK,33.96472458,-96.25903472,45068.0,15976.0,12344.0,3323.0,0.773,0.20800000000000002,1655.0,14.0,21890.0,23178.0,5.6,71.9,1.8,15.1,0.5,0.1,41197.0,22171.0,17.5,30.6,20.3,22.0,10.4,16.7,80.8,11.1,0.3,2.5,1.6,3.6,20.2,18781.0,73.4,20.7,5.7,0.1,6.4
293,Buchanan,IA,42.4709188,-91.83510825,21101.0,10764.0,6420.0,4169.0,0.596,0.387,554.0,5.0,10497.0,10604.0,1.5,96.4,0.3,0.3,0.6,0.0,59348.0,30974.0,7.8,30.5,16.6,19.8,12.5,20.6,79.1,6.5,0.3,5.7,2.7,5.8,22.4,10412.0,77.8,13.3,8.8,0.1,3.2
294,Buchanan,MO,39.65816401,-94.80138942,89425.0,36713.0,22450.0,13445.0,0.612,0.366,3093.0,43.0,44847.0,44578.0,6.4,83.8,5.4,0.2,1.0,0.2,48652.0,24271.0,17.3,28.0,19.5,23.5,8.1,21.0,83.5,10.7,0.8,1.5,1.2,2.3,17.4,42011.0,84.1,11.3,4.6,0.1,5.7
295,Buchanan,VA,37.26818323,-82.03749726,22611.0,9942.0,8311.0,1587.0,0.836,0.16,276.0,4.0,11378.0,11233.0,0.3,95.4,2.8,0.5,0.5,0.0,30828.0,19241.0,26.5,25.9,16.0,23.1,20.7,14.2,87.1,7.5,0.6,1.8,2.1,0.9,27.7,6679.0,78.3,17.6,4.1,0.0,8.6
296,Buckingham,VA,37.57242268,-78.52518834,17048.0,8108.0,4544.0,3471.0,0.56,0.428,763.0,9.0,9465.0,7583.0,2.4,61.1,34.3,0.3,0.3,0.1,46610.0,19702.0,16.6,27.8,22.8,20.0,16.6,12.7,81.1,11.6,1.0,1.5,1.2,3.6,35.5,6543.0,74.0,19.0,6.6,0.4,8.4
297,Bucks,PA,40.33682119,-75.10836643,626486.0,389093.0,184149.0,200854.0,0.473,0.516,10513.0,626.0,307319.0,319167.0,5.0,84.8,3.8,0.2,4.5,0.0,82031.0,41924.0,6.1,43.1,13.9,25.2,7.8,9.9,81.9,7.0,3.3,1.8,0.8,5.1,29.8,326994.0,85.9,8.8,5.2,0.2,5.4
298,Buena Vista,IA,42.73545875,-95.15100162,20369.0,8072.0,5004.0,2919.0,0.62,0.36200000000000004,2356.0,12.0,10254.0,10115.0,25.0,61.4,2.6,0.0,8.9,1.3,52784.0,26345.0,13.7,26.3,17.1,18.0,8.6,29.9,71.6,15.9,0.0,5.3,1.6,5.5,13.9,10658.0,81.2,9.9,8.7,0.3,4.9
300,Buffalo,NE,40.85486962,-99.07500296,48834.0,23589.0,16640.0,6350.0,0.705,0.26899999999999996,2011.0,19.0,24367.0,24467.0,8.7,87.4,1.1,0.1,1.3,0.0,55053.0,28553.0,14.4,33.4,18.2,25.4,9.6,13.4,82.0,9.3,0.2,3.5,1.7,3.5,14.6,27447.0,81.0,13.1,5.7,0.2,3.1
301,Buffalo,SD,44.07657829,-99.20814467,2048.0,549.0,183.0,352.0,0.33299999999999996,0.6409999999999999,272.0,4.0,984.0,1064.0,2.4,11.8,0.4,81.3,0.0,2.0,30500.0,10960.0,40.5,31.5,30.0,21.7,9.6,7.2,75.8,11.3,0.0,7.0,0.5,5.3,13.0,594.0,38.9,57.7,2.2,1.2,17.0
302,Buffalo,WI,44.37835084,-91.75332578,13243.0,7816.0,4834.0,2860.0,0.618,0.366,338.0,3.0,6740.0,6503.0,2.2,95.9,0.5,0.3,0.0,0.0,54753.0,28286.0,10.7,30.5,14.8,19.7,14.3,20.7,78.2,10.6,0.2,3.1,1.5,6.4,25.1,6826.0,79.5,9.9,10.2,0.3,3.5
303,Bullitt,KY,37.97162523,-85.68955617,78622.0,41964.0,30708.0,10551.0,0.732,0.251,1617.0,15.0,39131.0,39491.0,1.8,94.9,0.6,0.2,0.6,0.1,59917.0,26643.0,10.2,27.3,13.0,26.9,11.1,21.7,85.2,10.0,0.1,0.7,1.0,3.0,28.1,38391.0,86.4,9.5,4.0,0.2,5.9
304,Bulloch,GA,32.39577406,-81.74811421,73742.0,30084.0,18386.0,11243.0,0.611,0.374,3128.0,33.0,36288.0,37454.0,3.7,64.0,28.5,0.2,1.5,0.0,39305.0,20526.0,30.4,32.9,21.8,21.8,9.5,14.1,79.2,10.8,1.3,2.2,2.1,4.5,21.6,32662.0,67.3,24.6,7.7,0.3,9.3
305,Bullock,AL,32.10030533,-85.71265535,10478.0,4603.0,1143.0,3439.0,0.248,0.747,655.0,17.0,5616.0,4862.0,0.3,21.6,75.6,1.0,0.7,0.0,29655.0,20856.0,28.5,19.7,17.1,18.6,14.0,30.6,73.1,15.7,0.3,6.2,1.7,3.0,29.8,4290.0,81.4,13.6,5.0,0.0,12.1
306,Buncombe,NC,35.61113393,-82.53305,252268.0,160855.0,62253.0,96383.0,0.387,0.599,4306.0,108.0,121002.0,131266.0,6.4,83.7,6.1,0.4,1.2,0.1,48464.0,29590.0,13.2,39.6,18.9,22.8,8.7,10.1,79.5,8.2,0.6,2.1,1.0,8.5,20.1,123090.0,79.7,11.8,8.3,0.2,4.7
307,Bureau,IL,41.40385234,-89.5283051,33619.0,17182.0,10296.0,6545.0,0.599,0.381,1022.0,19.0,16506.0,17113.0,8.8,88.4,0.8,0.1,0.8,0.0,54271.0,28332.0,12.6,28.0,19.1,22.7,10.0,20.2,82.0,9.2,0.8,1.9,1.9,4.2,20.6,16262.0,82.1,10.5,7.2,0.2,5.7
308,Burke,GA,33.05917989,-81.99928721,22645.0,10684.0,5400.0,5209.0,0.505,0.488,901.0,12.0,10752.0,11893.0,3.1,47.0,49.1,0.0,0.3,0.0,38707.0,19720.0,29.2,28.0,18.1,19.8,14.8,19.4,87.7,7.8,0.2,0.7,1.0,2.7,26.4,8671.0,77.2,17.0,5.6,0.2,5.8
309,Burke,NC,35.74989637,-81.70755735,88898.0,44182.0,30814.0,12985.0,0.6970000000000001,0.294,2798.0,52.0,43908.0,44990.0,5.9,82.3,5.9,0.5,3.6,0.1,40854.0,21885.0,19.3,28.3,21.5,19.1,9.0,22.1,85.6,9.4,0.2,1.1,0.9,2.9,21.5,37149.0,75.4,17.9,6.6,0.2,9.3
310,Burke,ND,48.79094471,-102.51821170000001,2253.0,1144.0,984.0,136.0,0.86,0.11900000000000001,86.0,1.0,1198.0,1055.0,1.6,93.4,0.4,2.8,0.0,0.0,71667.0,35674.0,7.3,35.2,14.6,15.7,21.8,12.8,73.2,10.4,0.0,8.0,0.6,7.8,23.9,1129.0,71.1,17.4,11.0,0.4,2.6
311,Burleigh,ND,46.97847375,-100.46452140000001,92372.0,50753.0,34744.0,14348.0,0.685,0.28300000000000003,7486.0,79.0,46218.0,46154.0,2.2,89.9,1.7,3.7,0.7,0.0,67308.0,36483.0,8.5,39.6,16.0,23.3,11.7,9.4,85.0,8.7,0.3,1.5,0.9,3.7,17.2,51229.0,77.1,17.8,5.0,0.0,1.8
312,Burleson,TX,30.49273808,-96.62158484,17596.0,8604.0,6740.0,1786.0,0.7829999999999999,0.20800000000000002,482.0,6.0,8781.0,8815.0,20.1,65.7,12.3,0.2,0.3,0.0,52510.0,27112.0,15.1,25.6,19.3,19.1,17.2,18.9,81.6,13.5,0.3,1.1,0.8,2.6,27.4,7697.0,71.9,18.5,9.3,0.4,6.7
313,Burlington,NJ,39.87681124,-74.66927768,449192.0,242911.0,94755.0,144154.0,0.39,0.593,8721.0,516.0,220995.0,228197.0,7.6,68.3,15.7,0.0,4.8,0.0,82839.0,39528.0,6.4,43.8,14.6,25.3,6.6,9.7,83.1,7.1,3.6,1.4,1.0,3.8,29.3,223990.0,78.2,17.5,4.1,0.2,6.9
314,Burnet,TX,30.78801353,-98.181887,45017.0,24646.0,18721.0,5615.0,0.76,0.228,1096.0,15.0,22234.0,22783.0,21.9,74.1,1.5,0.6,0.7,0.0,57173.0,29247.0,12.3,30.2,18.8,22.4,14.9,13.6,76.4,12.5,0.2,2.7,1.6,6.6,26.2,19567.0,75.3,12.4,12.0,0.3,4.3
315,Burnett,WI,45.86303537,-92.36711412,15239.0,10141.0,6462.0,3569.0,0.637,0.35200000000000004,328.0,6.0,7798.0,7441.0,1.7,90.6,0.5,4.1,0.3,0.0,45891.0,26308.0,14.6,29.1,20.4,19.9,13.6,16.9,78.4,10.7,0.2,2.9,0.9,7.0,27.0,6535.0,75.1,15.5,9.0,0.4,5.1
316,Burt,NE,41.85056773,-96.32605633,6546.0,3731.0,2580.0,1063.0,0.6920000000000001,0.285,152.0,1.0,3231.0,3315.0,2.7,93.6,0.6,1.8,0.4,0.0,50174.0,26421.0,12.3,33.2,16.0,23.4,16.4,11.0,82.1,7.6,0.0,3.1,1.1,6.1,22.4,3011.0,74.8,13.4,10.9,0.9,3.5
317,Butler,AL,31.75300095,-86.68057478,20126.0,9466.0,5448.0,3953.0,0.5760000000000001,0.418,1024.0,41.0,9416.0,10710.0,0.3,52.2,44.7,0.1,1.1,0.0,36326.0,19004.0,24.4,26.9,17.3,18.5,11.6,25.7,83.6,12.6,0.0,0.9,0.9,2.0,23.2,7727.0,79.1,15.3,5.3,0.3,7.6
318,Butler,IA,42.73172833,-92.79015971,14822.0,8084.0,5542.0,2424.0,0.6859999999999999,0.3,437.0,3.0,7402.0,7420.0,1.3,96.8,0.2,0.3,0.4,0.1,53937.0,28584.0,9.4,29.9,14.1,23.9,11.3,20.8,81.3,9.4,0.2,3.0,0.9,5.2,24.0,7431.0,77.2,11.2,11.3,0.3,3.2
319,Butler,KS,37.78134351,-96.83878537,66260.0,31946.0,22250.0,9003.0,0.696,0.282,990.0,3.0,33449.0,32811.0,4.6,89.5,2.1,0.8,1.1,0.0,62324.0,28478.0,10.8,40.0,15.2,21.4,11.6,11.8,84.8,7.9,0.1,1.6,1.3,4.2,22.7,31363.0,77.9,16.0,6.0,0.1,4.5
320,Butler,KY,37.20946153,-86.68748787,12735.0,6125.0,4960.0,1078.0,0.81,0.17600000000000002,439.0,16.0,6405.0,6330.0,3.1,95.1,0.4,0.2,0.1,0.0,39362.0,21787.0,22.0,26.8,11.3,21.0,12.7,28.2,82.5,10.2,0.3,0.6,2.0,4.4,26.0,5177.0,75.6,15.4,8.1,0.9,5.4
321,Butler,MO,36.71462476,-90.40421163,42826.0,18165.0,14599.0,3301.0,0.804,0.182,1313.0,8.0,20735.0,22091.0,2.0,89.0,5.4,0.5,0.7,0.0,37878.0,20855.0,21.6,29.2,18.0,24.8,8.4,19.6,80.8,10.5,0.7,2.6,2.1,3.3,18.0,16983.0,77.6,15.9,6.3,0.2,9.2
322,Butler,NE,41.22703692,-97.13106306,8105.0,4478.0,3526.0,869.0,0.787,0.19399999999999998,305.0,2.0,4085.0,4020.0,3.0,95.0,0.5,0.2,0.4,0.0,52448.0,27216.0,7.8,27.8,17.0,18.2,14.0,23.0,81.0,7.3,0.2,2.6,1.2,7.6,22.0,4121.0,76.0,12.6,11.2,0.1,4.4
323,Butler,OH,39.44012838,-84.57388716,375702.0,182034.0,111722.0,67729.0,0.614,0.37200000000000005,9565.0,134.0,184149.0,191553.0,4.5,82.2,7.8,0.1,2.9,0.1,62188.0,29745.0,12.9,38.5,16.5,24.4,6.9,13.8,84.7,7.6,0.6,2.0,0.9,4.2,24.4,180865.0,85.1,10.6,4.2,0.1,5.4
324,Butler,PA,40.91152759,-79.91351055,185984.0,110960.0,73023.0,36534.0,0.6579999999999999,0.32899999999999996,1892.0,28.0,91847.0,94137.0,1.4,95.0,0.9,0.1,1.1,0.0,66037.0,35101.0,8.4,38.8,16.1,23.7,9.1,12.3,84.6,7.2,0.7,2.4,0.7,4.4,26.8,93194.0,85.2,9.6,5.0,0.2,4.5
325,Butte,CA,39.66727762,-121.6005252,225207.0,99780.0,47568.0,49402.0,0.47700000000000004,0.495,3172.0,53.0,111587.0,113620.0,15.7,72.9,1.5,0.7,4.4,0.2,46516.0,26304.0,20.5,35.9,22.2,22.7,9.2,10.1,75.0,11.1,1.2,3.2,3.9,5.7,20.1,93439.0,72.8,17.2,9.7,0.4,9.1
326,Butte,ID,43.72592209,-113.1735463,2613.0,1415.0,1202.0,188.0,0.8490000000000001,0.133,104.0,0.0,1350.0,1263.0,2.5,94.6,2.5,0.0,0.0,0.0,43207.0,26227.0,16.2,32.5,16.1,18.3,16.3,16.8,80.9,7.6,1.7,3.2,2.2,4.4,22.6,975.0,66.4,26.5,7.2,0.0,6.7
327,Butte,SD,44.90608745,-103.5079318,10194.0,4802.0,3731.0,939.0,0.777,0.196,420.0,3.0,5078.0,5116.0,3.5,91.8,0.6,1.8,0.0,0.0,44786.0,26178.0,11.1,28.5,20.2,19.4,16.9,14.9,74.3,14.8,0.0,2.5,0.1,8.3,20.5,5096.0,69.3,15.6,14.5,0.6,2.8
328,Butts,GA,33.283094500000004,-83.95435040000001,23556.0,11789.0,8405.0,3272.0,0.713,0.278,749.0,44.0,12464.0,11092.0,3.1,66.6,28.2,0.1,0.6,0.0,39655.0,21236.0,23.5,27.3,16.3,25.3,14.4,16.7,85.7,9.0,0.0,0.2,0.6,4.6,30.8,8655.0,79.3,15.0,4.5,1.2,7.6
329,Cabarrus,NC,35.3877799,-80.55267168,196716.0,116396.0,62974.0,51943.0,0.541,0.446,5063.0,93.0,95708.0,101008.0,10.0,68.0,16.7,0.3,3.0,0.1,60716.0,29143.0,11.5,37.4,16.9,24.6,9.7,11.3,83.3,9.9,0.7,0.7,0.8,4.7,27.8,95894.0,81.6,13.8,4.5,0.2,6.8
330,Cabell,WV,38.42424062,-82.23855912,96100.0,37360.0,21721.0,14994.0,0.581,0.401,1548.0,29.0,47121.0,48979.0,1.4,90.1,4.9,0.1,1.3,0.0,37816.0,24646.0,23.2,36.5,20.7,26.9,6.1,9.8,82.6,7.4,1.3,3.8,2.0,2.9,20.5,39455.0,80.5,15.8,3.7,0.1,5.5
331,Cache,UT,41.72330587,-111.74436670000001,120288.0,54646.0,36077.0,15859.0,0.66,0.29,0.0,0.0,60247.0,60041.0,10.5,83.8,0.7,0.4,2.1,0.4,53812.0,21752.0,15.2,37.9,15.6,22.8,7.8,16.0,74.5,11.5,2.1,4.0,2.7,5.2,17.3,56905.0,77.5,18.0,4.4,0.2,3.6
332,Caddo,OK,35.17364557,-98.37534464,29437.0,9859.0,7013.0,2670.0,0.711,0.271,1187.0,26.0,15383.0,14054.0,12.1,57.4,2.2,22.4,0.4,0.1,41626.0,21071.0,20.8,29.1,17.7,21.6,17.0,14.6,82.4,11.6,0.4,2.3,1.1,2.2,22.9,11207.0,66.6,25.1,8.1,0.2,7.6
333,Caddo,LA,32.57991587,-93.88375652,251069.0,104912.0,48021.0,55110.0,0.45799999999999996,0.525,10350.0,396.0,119235.0,131834.0,2.8,45.6,48.3,0.4,1.2,0.0,40391.0,25565.0,23.4,33.1,21.5,24.4,8.9,12.0,86.4,7.2,1.8,1.2,1.0,2.4,20.9,105583.0,81.2,14.1,4.6,0.1,7.0
334,Calaveras,CA,38.20537103,-120.55291299999999,45057.0,26717.0,16287.0,9845.0,0.61,0.368,354.0,21.0,22292.0,22765.0,11.5,82.0,0.6,0.9,1.2,0.5,54800.0,31652.0,12.8,35.6,18.4,22.9,11.6,11.5,79.1,9.9,1.0,1.2,0.6,8.3,35.5,16721.0,67.6,18.2,13.7,0.4,7.1
335,Calcasieu,LA,30.22931235,-93.35400434,198753.0,82663.0,55066.0,25982.0,0.6659999999999999,0.314,8530.0,230.0,96906.0,101847.0,3.2,68.2,24.6,0.3,1.4,0.0,48219.0,26569.0,16.8,30.6,21.1,22.5,12.6,13.2,86.1,8.2,0.3,1.5,1.8,2.1,20.5,90318.0,80.9,14.0,5.0,0.1,6.6
336,Caldwell,KY,37.14749129,-87.86948214,12747.0,6436.0,4905.0,1432.0,0.762,0.222,306.0,0.0,5973.0,6774.0,1.3,91.1,6.8,0.0,0.0,0.0,46182.0,25272.0,17.5,29.2,13.2,21.2,11.7,24.7,81.1,9.3,0.5,2.4,5.6,1.2,22.4,5330.0,75.6,15.2,8.3,0.8,6.9
337,Caldwell,MO,39.65620858,-93.98308093,9046.0,4696.0,3725.0,897.0,0.7929999999999999,0.191,194.0,1.0,4572.0,4474.0,2.1,94.8,0.5,0.4,0.4,0.0,44975.0,24200.0,13.3,28.2,17.6,22.3,16.1,15.8,82.9,9.3,0.1,3.4,0.7,3.7,32.6,3840.0,72.4,19.0,8.5,0.1,3.8
338,Caldwell,NC,35.95204977,-81.54799522,81805.0,42438.0,31877.0,10105.0,0.7509999999999999,0.23800000000000002,2685.0,19.0,40361.0,41444.0,5.1,87.9,4.9,0.4,0.6,0.0,40735.0,21991.0,16.4,24.5,17.0,22.7,11.6,24.2,83.4,10.3,0.1,0.7,1.9,3.7,23.4,35011.0,80.8,13.2,6.0,0.0,7.9
339,Caldwell,TX,29.83668859,-97.61814775,40544.0,14775.0,7975.0,6536.0,0.54,0.442,1726.0,37.0,20563.0,19981.0,50.7,41.1,6.1,0.2,1.0,0.1,51346.0,23366.0,17.7,25.3,20.2,23.5,17.4,13.7,79.0,11.6,0.2,3.6,1.7,4.0,30.6,18238.0,74.3,18.9,6.7,0.1,3.4
340,Caldwell,LA,32.0902519,-92.11752148,10000.0,4762.0,3976.0,745.0,0.835,0.156,376.0,3.0,5313.0,4687.0,3.1,79.1,16.8,0.6,0.2,0.0,31933.0,20961.0,26.2,23.8,25.4,24.3,14.8,11.7,84.4,7.2,0.0,4.4,2.3,1.7,23.7,3451.0,69.9,25.4,4.6,0.0,9.4
342,Calhoun,AL,33.77483727,-85.82630386,115527.0,50743.0,34964.0,15118.0,0.6890000000000001,0.298,4892.0,65.0,55593.0,59934.0,3.6,72.7,20.4,0.2,1.0,0.0,43686.0,23638.0,18.6,29.0,17.5,23.7,10.4,19.4,85.0,9.2,0.2,1.3,1.1,3.2,24.8,47392.0,74.9,19.9,5.1,0.1,10.1
343,Calhoun,AR,33.55598792,-92.49974403,5194.0,2143.0,1609.0,467.0,0.7509999999999999,0.218,59.0,0.0,2693.0,2501.0,3.9,72.6,21.9,0.1,0.2,0.2,37225.0,22866.0,19.6,24.5,13.8,15.8,16.3,29.6,87.4,5.4,0.5,1.8,1.7,3.2,24.4,2215.0,73.5,23.7,2.8,0.0,5.7
344,Calhoun,FL,30.40666734,-85.19394153,14458.0,6537.0,5274.0,1209.0,0.807,0.185,731.0,14.0,7872.0,6586.0,5.8,76.9,12.8,0.9,0.8,0.0,36237.0,15927.0,12.9,23.9,29.4,19.1,18.2,9.4,78.7,15.5,0.0,0.9,3.2,1.7,26.8,4698.0,71.4,23.1,5.5,0.0,8.6
345,Calhoun,GA,31.53169785,-84.62725131,6503.0,2194.0,923.0,1260.0,0.42100000000000004,0.574,277.0,10.0,3915.0,2588.0,4.8,32.5,60.5,0.0,0.5,0.0,29617.0,13865.0,32.2,30.3,21.4,17.5,15.0,15.8,79.2,9.8,0.6,2.5,0.2,7.6,22.6,1612.0,71.5,23.9,3.9,0.7,14.9
346,Calhoun,IA,42.38521079,-94.64046046,9814.0,5249.0,3689.0,1470.0,0.703,0.28,348.0,4.0,5080.0,4734.0,1.8,94.8,1.8,0.3,0.3,0.0,46302.0,27370.0,15.3,33.3,18.5,19.7,14.0,14.3,82.4,7.6,0.5,2.0,1.5,6.0,20.4,4370.0,69.9,16.7,13.2,0.1,2.3
347,Calhoun,IL,39.16840183,-90.66330078,4897.0,2767.0,2043.0,674.0,0.738,0.244,84.0,0.0,2453.0,2444.0,1.1,96.7,0.3,0.1,0.9,0.0,53641.0,25660.0,12.8,31.2,21.5,16.9,17.0,13.4,82.1,8.2,1.2,2.2,0.7,5.6,39.6,2166.0,76.2,14.0,9.1,0.6,3.7
348,Calhoun,MI,42.24633834,-85.00493569,134327.0,65568.0,35900.0,28417.0,0.5479999999999999,0.433,3275.0,70.0,65652.0,68675.0,5.0,78.3,10.6,0.6,2.1,0.0,46213.0,24859.0,17.4,29.0,19.6,21.4,7.5,22.5,82.2,9.7,0.7,3.1,1.0,3.2,20.2,58179.0,82.5,12.4,4.9,0.1,7.4
349,Calhoun,MS,33.93683395,-89.33686647,14617.0,6536.0,4592.0,1878.0,0.703,0.287,641.0,13.0,6994.0,7623.0,5.7,65.0,27.2,0.0,0.2,0.3,33370.0,17837.0,26.9,21.4,13.8,17.7,13.8,33.3,86.5,9.0,0.5,0.9,1.3,1.8,25.1,5260.0,82.3,10.6,7.0,0.1,8.4
350,Calhoun,SC,33.66926881,-80.77722168,14808.0,8291.0,4305.0,3905.0,0.519,0.47100000000000003,515.0,18.0,7071.0,7737.0,3.6,53.6,41.6,0.5,0.0,0.0,44010.0,24766.0,18.3,28.5,15.0,23.2,12.7,20.6,86.0,8.3,0.3,1.1,1.2,3.1,28.1,6362.0,74.6,18.7,6.7,0.0,6.5
351,Calhoun,TX,28.47048236,-96.61633945,21821.0,7853.0,5640.0,2146.0,0.718,0.273,935.0,9.0,10976.0,10845.0,48.1,43.2,2.6,0.1,4.9,0.1,58788.0,26909.0,15.8,24.8,16.4,19.5,17.3,21.9,82.7,11.7,0.5,0.9,1.1,3.2,20.9,9676.0,83.8,10.5,5.7,0.0,6.3
352,Calhoun,WV,38.84315422,-81.11934872,7450.0,2971.0,2364.0,568.0,0.7959999999999999,0.191,36.0,0.0,3689.0,3761.0,1.3,97.3,0.0,0.1,0.0,0.0,36279.0,19696.0,17.1,31.6,12.8,20.9,21.2,13.6,83.2,12.1,0.4,2.2,1.2,1.0,33.1,2284.0,78.5,18.3,2.1,1.1,14.5
353,Callahan,TX,32.29760619,-99.37326312,13660.0,6826.0,6006.0,734.0,0.88,0.10800000000000001,137.0,6.0,6650.0,7010.0,9.1,86.8,1.5,0.1,0.2,0.0,40945.0,22205.0,15.6,24.9,15.2,24.8,18.3,16.7,84.7,8.8,0.0,0.8,0.3,5.4,22.9,5128.0,72.1,16.3,10.2,1.4,3.5
354,Callaway,MO,38.83674754,-91.92186505,44793.0,21178.0,14812.0,5868.0,0.6990000000000001,0.27699999999999997,1481.0,7.0,22801.0,21992.0,2.0,90.2,4.3,0.5,0.8,0.0,53180.0,24208.0,12.3,31.9,18.5,23.9,11.6,14.2,82.5,10.2,0.1,1.0,2.7,3.5,23.5,20199.0,70.8,23.9,5.2,0.1,4.3
355,Calloway,KY,36.62093411,-88.2731593,38616.0,17443.0,11351.0,5794.0,0.6509999999999999,0.332,1075.0,10.0,18594.0,20022.0,2.6,89.7,3.7,0.3,1.8,0.1,39269.0,21757.0,22.4,31.1,20.0,24.7,9.5,14.7,77.1,9.8,0.2,7.7,1.6,3.5,16.6,17382.0,72.7,20.6,6.4,0.3,5.7
356,Calumet,WI,44.0816316,-88.21780273,49737.0,30774.0,18156.0,12116.0,0.59,0.39399999999999996,2857.0,14.0,24812.0,24925.0,4.1,91.4,0.8,0.6,2.2,0.0,70662.0,32713.0,5.9,34.9,12.4,23.9,8.5,20.2,86.7,6.8,0.2,1.1,1.0,4.2,20.2,27483.0,86.2,9.4,4.2,0.2,2.0
357,Calvert,MD,38.53961642,-76.56820632,90824.0,48023.0,24957.0,22185.0,0.52,0.462,1212.0,29.0,45184.0,45640.0,3.6,78.8,11.7,0.2,1.6,0.0,100350.0,41469.0,5.7,41.0,15.0,23.0,13.0,8.1,81.7,8.4,3.0,0.7,0.9,5.3,41.9,45756.0,67.1,28.1,4.7,0.1,7.3
358,Camas,ID,43.46665742,-114.8065892,886.0,754.0,507.0,149.0,0.672,0.198,41.0,0.0,443.0,443.0,9.3,90.4,0.0,0.0,0.0,0.0,36667.0,29193.0,22.3,31.2,16.5,18.5,26.9,6.9,79.7,6.6,0.0,2.0,3.0,8.6,29.2,394.0,57.4,24.1,17.8,0.8,4.4
359,Cambria,PA,40.49527404,-78.71377428,135871.0,70600.0,48092.0,21749.0,0.6809999999999999,0.308,1225.0,9.0,66777.0,69094.0,1.5,93.0,3.2,0.0,0.5,0.0,44943.0,24838.0,15.6,33.1,19.8,22.9,9.8,14.3,83.3,8.8,1.1,2.9,1.0,2.8,24.1,57361.0,82.4,13.2,4.3,0.1,7.5
360,Camden,GA,30.92951916,-81.66601818,52252.0,23688.0,15251.0,7967.0,0.644,0.336,1459.0,18.0,26821.0,25431.0,6.4,70.1,18.5,0.6,1.4,0.1,53687.0,26854.0,12.7,33.0,19.6,23.8,12.1,11.5,84.0,7.2,0.2,4.8,2.0,1.8,22.8,21015.0,68.1,26.6,5.1,0.2,8.2
361,Camden,MO,38.02199522,-92.76083747,44855.0,24774.0,18825.0,5640.0,0.76,0.228,1684.0,36.0,22316.0,22539.0,2.7,94.5,0.7,0.6,0.6,0.0,50496.0,25492.0,17.5,29.1,21.9,27.0,11.1,10.9,82.2,10.5,0.0,0.5,1.4,5.2,22.4,17136.0,79.3,11.6,9.0,0.1,8.0
362,Camden,NC,36.33804939,-76.15568396,10336.0,5953.0,4312.0,1537.0,0.7240000000000001,0.258,142.0,3.0,5103.0,5233.0,2.7,80.4,14.3,0.1,1.9,0.0,68327.0,27468.0,9.0,37.4,21.5,19.4,11.8,9.8,91.9,4.2,0.0,1.2,1.7,0.9,33.7,4528.0,65.9,29.3,4.6,0.2,8.9
363,Camden,NJ,39.80343818,-74.96388753,510996.0,243151.0,78600.0,160606.0,0.32299999999999995,0.6609999999999999,11988.0,636.0,246942.0,264054.0,16.1,57.5,18.1,0.1,5.7,0.0,65037.0,32931.0,13.1,39.3,17.9,25.2,6.8,10.8,76.8,9.2,7.4,2.0,1.3,3.4,28.3,248241.0,82.4,13.4,4.0,0.2,7.9
364,Cameron,PA,41.43625568,-78.20376845,4754.0,2434.0,1771.0,634.0,0.728,0.26,10.0,0.0,2419.0,2335.0,0.8,96.6,1.1,0.2,0.4,0.0,40402.0,24933.0,14.4,23.1,18.8,16.9,11.9,29.2,79.0,10.9,0.4,6.0,1.2,2.6,17.6,2127.0,77.6,15.2,6.8,0.5,4.1
365,Cameron,TX,26.14524221,-97.48140372,420201.0,113789.0,48834.0,63732.0,0.429,0.56,24280.0,1083.0,203657.0,216544.0,89.3,9.3,0.4,0.1,0.6,0.0,36095.0,16085.0,31.2,28.2,26.3,24.3,10.5,10.6,84.8,9.1,0.5,1.3,1.8,2.4,20.2,153938.0,73.8,17.1,8.9,0.3,8.0
366,Cameron,LA,29.87592238,-93.19310676,6806.0,4039.0,3671.0,324.0,0.909,0.08,240.0,2.0,3289.0,3517.0,5.5,91.3,2.8,0.0,0.3,0.0,60194.0,29681.0,8.7,24.9,12.0,26.8,17.8,18.5,86.7,8.6,0.2,0.8,2.8,0.9,33.6,3118.0,76.5,16.3,7.0,0.3,3.0
367,Camp,TX,32.97195142,-94.97790104,12670.0,5057.0,3626.0,1392.0,0.7170000000000001,0.275,407.0,13.0,6215.0,6455.0,23.9,56.6,16.9,0.4,0.3,0.0,41811.0,21069.0,17.4,22.5,18.0,22.4,14.3,22.7,80.7,13.7,0.4,0.1,1.4,3.6,26.0,5274.0,75.1,15.0,8.9,1.0,6.1
368,Campbell,KY,38.94384345,-84.37875208,91804.0,48833.0,28482.0,19373.0,0.583,0.397,1420.0,16.0,45005.0,46799.0,1.9,92.4,3.2,0.0,0.9,0.0,57208.0,31065.0,14.2,39.1,15.3,25.8,7.9,11.8,80.9,9.1,2.1,3.1,1.2,3.6,22.4,46154.0,85.0,11.0,3.9,0.1,5.4
369,Campbell,SD,45.77074915,-100.0510181,1443.0,873.0,747.0,117.0,0.856,0.134,82.0,1.0,720.0,723.0,0.1,97.2,0.0,1.0,0.0,0.0,51548.0,36158.0,4.7,49.8,15.2,18.1,7.3,9.6,75.2,5.8,0.0,8.2,0.8,10.0,17.1,757.0,59.7,15.9,24.4,0.0,1.0
370,Campbell,TN,36.40355516,-84.15108559999999,39824.0,14929.0,12330.0,2438.0,0.826,0.163,1133.0,13.0,19411.0,20413.0,1.2,96.6,0.5,0.3,0.4,0.0,35377.0,21282.0,20.6,23.5,17.0,24.1,15.7,19.7,84.9,11.6,0.1,0.9,0.3,2.3,27.1,15080.0,77.9,14.7,7.3,0.1,8.0
371,Campbell,VA,37.20553386,-79.09678609,55158.0,29813.0,21250.0,8073.0,0.713,0.271,784.0,9.0,26745.0,28413.0,2.1,80.3,14.0,0.2,0.9,0.0,48823.0,26417.0,11.7,32.6,16.5,23.8,10.8,16.3,85.9,8.0,0.0,0.7,1.2,4.2,25.3,26478.0,83.3,10.9,5.7,0.1,3.4
372,Campbell,WY,44.24886082,-105.54744040000001,48116.0,19566.0,16975.0,1935.0,0.868,0.099,1190.0,3.0,25001.0,23115.0,8.4,87.7,0.3,0.8,0.5,0.0,80178.0,33200.0,9.4,26.5,14.2,21.7,22.6,15.0,80.0,10.2,2.5,1.9,1.9,3.6,20.7,25511.0,80.1,14.8,4.9,0.2,4.6
373,Canadian,OK,35.5426055,-97.98465569,132922.0,61940.0,43550.0,16742.0,0.703,0.27,4208.0,23.0,66068.0,66854.0,8.3,77.3,2.4,3.5,3.2,0.0,69220.0,29852.0,7.9,36.7,15.4,25.3,10.5,12.1,85.6,8.6,0.2,0.8,1.1,3.6,23.8,67192.0,77.5,17.0,5.3,0.1,4.3
374,Candler,GA,32.40209349,-82.07702563,10894.0,4432.0,3134.0,1269.0,0.7070000000000001,0.28600000000000003,550.0,25.0,5353.0,5541.0,11.5,61.2,23.5,0.7,0.8,0.0,33125.0,18233.0,31.5,25.8,16.8,26.7,14.6,16.1,80.9,15.2,0.0,1.4,0.3,2.1,22.2,4279.0,74.8,16.1,8.9,0.2,6.3
375,Cannon,TN,35.80990797,-86.05738983,13839.0,6562.0,5190.0,1261.0,0.7909999999999999,0.192,442.0,2.0,6738.0,7101.0,2.0,94.5,1.5,0.5,0.1,0.0,47457.0,24595.0,17.0,28.9,10.7,25.7,12.7,22.0,84.4,9.0,0.0,1.0,0.2,5.4,33.4,6072.0,74.6,13.0,12.4,0.0,6.6
376,Canyon,ID,43.61970148,-116.70954990000001,207027.0,90438.0,61759.0,25881.0,0.6829999999999999,0.28600000000000003,10417.0,111.0,102480.0,104547.0,24.9,70.9,0.4,0.7,0.8,0.2,46426.0,19765.0,17.1,26.5,19.2,23.6,14.4,16.3,78.1,11.5,0.3,1.7,1.9,6.6,24.6,88055.0,81.2,11.7,6.8,0.4,7.3
377,Cape Girardeau,MO,37.38489388,-89.6843587,78013.0,40252.0,28873.0,10738.0,0.7170000000000001,0.267,2871.0,55.0,37860.0,40153.0,2.3,86.4,7.9,0.1,1.4,0.0,49554.0,25965.0,17.7,34.4,20.0,23.8,8.9,12.9,83.1,9.8,0.4,2.4,1.5,2.9,19.6,37488.0,81.0,14.2,4.7,0.1,5.3
378,Cape May,NJ,39.15008829,-74.80170244,94549.0,56954.0,32770.0,23583.0,0.575,0.414,1151.0,100.0,46158.0,48391.0,7.4,85.6,4.5,0.0,1.0,0.0,62332.0,36256.0,10.6,34.6,22.6,24.9,10.8,7.0,79.3,6.1,2.1,5.1,2.8,4.5,22.9,42170.0,71.2,22.0,6.5,0.3,8.4
379,Carbon,MT,45.22850116,-109.0274047,10466.0,7045.0,4424.0,2412.0,0.628,0.342,275.0,1.0,5271.0,5195.0,2.4,94.6,0.2,0.8,0.3,0.0,56988.0,31697.0,9.9,38.5,18.6,19.5,15.1,8.3,61.9,12.6,1.1,8.5,3.0,12.9,27.5,5127.0,74.3,13.9,11.4,0.4,4.0
380,Carbon,PA,40.91545395,-75.7068525,63987.0,33018.0,21607.0,10990.0,0.654,0.33299999999999996,616.0,31.0,31716.0,32271.0,4.3,92.4,1.7,0.0,0.5,0.0,51236.0,25680.0,12.8,27.5,18.4,22.6,11.6,19.9,83.5,7.9,0.5,2.4,1.8,3.9,31.9,29256.0,85.3,9.9,4.7,0.1,7.6
381,Carbon,UT,39.64834818,-110.58725120000001,20512.0,8822.0,6255.0,2306.0,0.7090000000000001,0.261,0.0,0.0,10088.0,10424.0,13.2,83.3,0.7,0.8,0.4,0.2,46994.0,22536.0,16.2,27.9,19.4,23.2,15.0,14.5,80.9,11.1,0.5,3.4,0.8,3.3,17.7,8906.0,73.7,21.5,4.3,0.4,5.4
382,Carbon,WY,41.69357844,-106.9326084,15689.0,6664.0,5014.0,1427.0,0.752,0.214,336.0,2.0,8456.0,7233.0,17.9,77.7,1.2,1.5,0.7,0.1,57644.0,27797.0,13.3,30.7,19.4,16.6,16.6,16.7,81.5,9.1,0.4,3.5,1.4,4.1,16.3,7519.0,70.3,24.9,4.3,0.4,3.4
383,Caribou,ID,42.77149116,-111.5597683,6862.0,3416.0,2906.0,431.0,0.851,0.126,306.0,4.0,3483.0,3379.0,5.4,93.5,0.0,0.1,0.0,0.0,58750.0,25669.0,9.4,31.5,15.1,18.9,17.7,16.8,73.5,17.8,0.0,3.7,0.4,4.7,15.6,2967.0,75.2,16.1,8.0,0.7,2.7
384,Carlisle,KY,36.85372876,-88.96692220000001,4890.0,2638.0,2159.0,463.0,0.818,0.17600000000000002,111.0,1.0,2378.0,2512.0,2.3,94.4,1.6,0.6,0.2,0.0,38860.0,24015.0,17.3,27.9,20.8,23.2,10.6,17.6,84.4,8.1,0.0,0.1,2.1,5.4,26.2,1978.0,77.5,16.6,5.8,0.2,7.0
385,Carlton,MN,46.59180601,-92.67601019,35408.0,20361.0,9787.0,10094.0,0.48100000000000004,0.496,580.0,2.0,18500.0,16908.0,1.7,88.3,1.6,5.3,0.5,0.0,58874.0,26900.0,12.1,31.3,23.1,19.9,9.8,16.0,82.6,9.5,0.1,2.0,0.8,4.9,22.2,16758.0,72.8,21.1,5.9,0.2,3.9
386,Caroline,MD,38.87172293,-75.82904158,32785.0,14940.0,9899.0,4704.0,0.6629999999999999,0.315,765.0,8.0,15971.0,16814.0,6.9,76.3,13.2,0.1,0.6,0.0,52469.0,25355.0,16.5,27.6,21.5,22.0,16.8,12.2,83.7,8.6,0.9,2.4,1.7,2.6,32.1,15674.0,75.1,16.8,8.0,0.1,6.5
387,Caroline,VA,38.02679129,-77.34901405,29889.0,16288.0,8336.0,7657.0,0.512,0.47,450.0,6.0,14807.0,15082.0,4.3,63.6,28.1,0.4,0.9,0.0,60925.0,28039.0,11.9,28.8,18.1,26.4,12.0,14.7,79.5,11.8,0.3,4.1,1.5,2.9,35.6,13227.0,74.1,21.2,4.6,0.1,6.3
388,Carroll,AR,36.340385600000005,-93.54270261,27782.0,11639.0,7352.0,3941.0,0.632,0.33899999999999997,1049.0,19.0,13634.0,14148.0,14.8,80.6,0.5,0.6,1.0,0.6,39686.0,21754.0,15.7,27.5,18.5,20.1,11.2,22.7,80.2,10.5,0.0,3.8,0.5,5.0,19.8,11400.0,77.6,13.2,9.1,0.1,5.1
389,Carroll,GA,33.58138199,-85.07976677,114898.0,54474.0,37476.0,16238.0,0.688,0.298,3428.0,77.0,56032.0,58866.0,6.7,71.1,18.7,0.3,0.8,0.1,46844.0,23139.0,18.6,27.0,18.7,22.6,11.6,20.0,81.2,13.1,0.3,1.4,1.6,2.4,27.8,49458.0,79.2,15.1,5.6,0.1,9.4
390,Carroll,IA,42.03617207,-94.86032705,20428.0,11306.0,7737.0,3454.0,0.684,0.306,1264.0,13.0,10052.0,10376.0,2.4,95.3,1.5,0.1,0.2,0.0,54563.0,29191.0,10.3,31.3,15.6,24.4,10.7,18.1,83.4,6.3,0.4,2.3,0.9,6.7,14.0,10592.0,79.3,10.4,10.1,0.2,2.5
391,Carroll,IL,42.06823429,-89.93395545,14704.0,8006.0,5098.0,2737.0,0.637,0.342,506.0,14.0,7288.0,7416.0,3.6,93.4,1.2,0.1,0.7,0.0,50555.0,27605.0,11.3,31.0,16.2,19.6,9.9,23.2,81.5,9.1,0.9,2.6,0.7,5.2,24.7,6765.0,76.4,14.6,8.8,0.1,5.8
392,Carroll,IN,40.580783200000006,-86.56198812,19994.0,9514.0,7086.0,2224.0,0.745,0.23399999999999999,386.0,13.0,9980.0,10014.0,3.9,94.2,0.5,0.2,0.1,0.0,56188.0,26589.0,10.2,26.3,14.7,19.6,13.1,26.3,82.2,11.3,0.1,1.3,1.1,4.1,28.4,9492.0,79.6,12.5,7.8,0.2,5.2
393,Carroll,KY,38.66599534,-85.12601074,10695.0,4135.0,2954.0,1116.0,0.7140000000000001,0.27,233.0,5.0,5467.0,5228.0,6.6,89.1,2.5,0.1,0.3,0.0,43345.0,22296.0,27.7,20.1,17.0,22.2,13.4,27.4,80.4,12.9,0.0,2.7,0.8,3.1,18.5,4460.0,85.7,10.6,3.6,0.2,10.3
394,Carroll,MD,39.56453592,-77.02373735,167319.0,96848.0,58883.0,35316.0,0.608,0.365,2301.0,130.0,82784.0,84535.0,3.2,89.8,3.3,0.2,1.7,0.0,90510.0,39690.0,5.5,44.0,15.5,22.3,10.6,7.7,85.5,6.9,0.8,1.4,0.7,4.7,35.6,88335.0,76.5,18.7,4.8,0.0,4.0
395,Carroll,MO,39.42762566,-93.50626255,8909.0,4531.0,3706.0,785.0,0.818,0.17300000000000001,216.0,4.0,4321.0,4588.0,1.5,94.9,0.9,0.0,0.3,0.0,43583.0,24642.0,18.4,28.7,16.9,20.9,15.6,17.8,78.6,9.2,0.1,1.3,1.5,9.3,26.0,3700.0,74.6,13.0,12.1,0.3,8.2
396,Carroll,MS,33.44834567,-89.91994479,10221.0,4509.0,3257.0,1203.0,0.722,0.267,531.0,12.0,5157.0,5064.0,0.5,64.3,33.5,0.1,0.7,0.0,43068.0,22995.0,14.0,33.9,12.4,20.3,14.7,18.6,92.6,4.5,0.0,1.3,0.0,1.6,28.8,3737.0,71.9,18.3,9.3,0.5,7.0
397,Carroll,NH,43.87498583,-71.20430216,47524.0,538.0,267.0,266.0,0.496,0.494,161.0,2.0,23734.0,23790.0,1.4,96.1,0.5,0.1,0.6,0.0,58139.0,35646.0,9.2,32.5,21.3,23.6,12.7,9.9,82.0,7.7,0.3,2.2,1.5,6.2,26.2,23324.0,71.9,14.5,13.5,0.1,4.7
398,Carroll,OH,40.578968599999996,-81.09178213,27825.0,13957.0,10525.0,3206.0,0.754,0.23,265.0,7.0,13824.0,14001.0,1.3,96.4,0.9,0.1,0.4,0.1,51748.0,26908.0,14.8,25.3,17.6,22.2,14.2,20.7,83.2,8.3,0.0,2.4,1.8,4.3,28.5,12637.0,81.2,10.0,8.7,0.2,4.7
399,Carroll,TN,35.97366108,-88.45189331,28137.0,11893.0,9194.0,2558.0,0.773,0.215,1192.0,27.0,13758.0,14379.0,2.4,84.9,9.8,0.3,0.3,0.1,38201.0,20557.0,19.8,28.0,17.5,21.0,11.9,21.5,87.0,5.5,0.1,2.2,2.5,2.7,23.9,11050.0,75.5,17.1,7.1,0.3,6.9
400,Carroll,VA,36.73066666,-80.73455942,29767.0,15619.0,12659.0,2842.0,0.81,0.182,635.0,29.0,14993.0,14774.0,3.1,95.0,0.2,0.1,0.1,0.0,41145.0,23690.0,14.6,27.1,16.8,23.3,14.1,18.8,83.9,10.9,0.0,1.0,0.1,4.1,25.8,13125.0,74.9,16.1,9.0,0.0,3.8
401,Carson City,NV,39.15509045,-119.7480219,54219.0,29126.0,15771.0,12485.0,0.541,0.429,795.0,9.0,27794.0,26425.0,23.4,68.1,1.6,2.0,2.4,0.1,49341.0,28044.0,14.7,30.3,22.4,23.6,10.2,13.5,80.0,12.3,0.3,3.0,1.7,2.8,18.5,24327.0,71.3,24.4,4.0,0.2,7.7
402,Carson,TX,35.40365929,-101.35426690000001,6033.0,3081.0,2747.0,289.0,0.892,0.094,55.0,1.0,2888.0,3145.0,9.7,86.4,0.6,0.4,0.5,0.2,67010.0,31788.0,6.4,37.8,9.1,24.1,17.5,11.5,86.2,10.2,0.1,0.2,0.0,3.3,19.7,2896.0,71.3,20.3,8.1,0.2,1.9
403,Carter,KY,38.31690743,-83.05092385,27385.0,11585.0,8775.0,2642.0,0.757,0.228,396.0,4.0,13462.0,13923.0,0.9,96.8,0.8,0.4,0.1,0.0,35095.0,18477.0,21.5,24.6,19.9,26.5,13.4,15.6,79.6,12.6,0.2,4.2,0.8,2.6,30.3,9584.0,75.4,18.0,6.5,0.1,10.0
404,Carter,MO,36.94160441,-90.96051322,6255.0,2906.0,2451.0,418.0,0.843,0.14400000000000002,191.0,3.0,2981.0,3274.0,2.3,94.6,0.0,0.8,0.0,0.0,37875.0,21569.0,14.5,29.8,22.2,15.2,13.4,19.4,72.4,11.6,0.0,4.9,3.5,7.7,24.6,2484.0,75.0,13.4,11.7,0.0,6.9
405,Carter,MT,45.5197966,-104.53955359999999,1320.0,864.0,775.0,74.0,0.897,0.086,77.0,2.0,660.0,660.0,0.3,97.7,0.0,0.4,0.0,0.0,45347.0,30659.0,11.8,49.8,12.4,13.2,18.1,6.6,49.6,9.8,0.0,11.0,5.0,24.5,18.0,607.0,47.6,15.8,33.3,3.3,2.9
406,Carter,OK,34.25103751,-97.28552485,48407.0,19479.0,14699.0,4470.0,0.755,0.22899999999999998,924.0,10.0,23449.0,24958.0,6.8,70.8,6.4,7.1,1.1,0.0,47754.0,24965.0,16.4,28.7,18.9,22.8,12.3,17.3,83.6,10.3,0.5,1.6,1.0,3.0,19.6,20543.0,80.6,13.6,5.7,0.1,6.4
407,Carter,TN,36.28969086,-82.12588974,56500.0,24868.0,19873.0,4613.0,0.799,0.185,1747.0,36.0,27736.0,28764.0,1.7,95.1,1.4,0.3,0.4,0.0,34625.0,21001.0,24.5,27.4,21.2,22.9,11.1,17.5,86.7,6.2,0.2,1.3,1.4,4.4,23.8,22819.0,75.3,16.6,8.1,0.1,6.3
408,Carteret,NC,34.8932941,-76.54120135,68699.0,42367.0,29886.0,11999.0,0.705,0.28300000000000003,1204.0,5.0,33760.0,34939.0,4.2,86.4,5.7,0.2,1.1,0.0,51584.0,30903.0,12.5,35.1,20.3,22.7,12.9,9.0,79.5,11.1,0.4,1.5,2.4,5.0,23.2,30098.0,67.9,22.3,9.7,0.1,8.0
409,Carver,MN,44.82017001,-93.80099179999999,98799.0,66119.0,34012.0,30770.0,0.514,0.465,1967.0,8.0,49086.0,49713.0,4.1,89.6,1.5,0.2,2.5,0.0,93095.0,44212.0,4.0,46.5,14.3,24.2,6.1,8.9,82.5,7.0,2.0,1.2,0.9,6.4,26.3,55757.0,85.5,9.1,5.2,0.1,2.4
410,Cascade,MT,47.30797024,-111.3467922,81816.0,39688.0,23199.0,15384.0,0.585,0.38799999999999996,2199.0,15.0,41259.0,40557.0,4.2,85.8,1.3,4.2,0.8,0.1,46827.0,28350.0,13.1,35.6,19.9,23.5,11.6,9.3,79.8,11.2,0.7,3.8,1.1,3.4,15.3,36927.0,75.0,17.2,7.5,0.4,4.6
411,Casey,KY,37.32533118,-84.92726209,15805.0,7180.0,6179.0,918.0,0.861,0.128,326.0,16.0,7785.0,8020.0,2.8,95.0,0.6,0.3,0.3,0.0,33031.0,18319.0,26.6,28.0,14.9,19.9,14.0,23.2,80.2,12.4,0.2,0.7,1.5,5.0,28.9,5769.0,74.2,17.3,8.2,0.3,7.5
412,Cass,IA,41.33149454,-94.92792482,13327.0,7266.0,4969.0,2201.0,0.684,0.303,498.0,4.0,6586.0,6741.0,2.4,95.8,0.3,0.1,0.5,0.2,45637.0,26427.0,15.1,29.4,16.7,22.4,13.2,18.3,78.0,10.9,0.7,4.8,0.8,4.8,18.4,6544.0,76.7,12.1,10.7,0.5,2.5
413,Cass,IL,39.96991073,-90.24734436,12880.0,5325.0,3624.0,1615.0,0.6809999999999999,0.303,476.0,11.0,6529.0,6351.0,18.8,76.2,3.9,0.0,0.3,0.0,50156.0,25451.0,13.1,23.8,16.4,21.1,11.1,27.6,77.8,12.8,0.4,3.3,1.5,4.2,20.5,6152.0,77.3,14.4,8.0,0.3,6.9
